{
  "version": 0.6,
  "generator": "Overpass API",
  "osm3s": {
    "timestamp_osm_base": "2017-06-09T14:41:11Z",
    "copyright": "The data included in this document is from www.openstreetmap.org. The data is made available under ODbL."
  },
  "elements": [
    {
      "type": "node",
      "id": 26684275,
      "lat": 40.0113725,
      "lon": -8.5999775,
      "tags": {
        "amenity": "fuel"
      }
    },
    {
      "type": "node",
      "id": 59909617,
      "lat": 39.0995212,
      "lon": -9.2488858,
      "tags": {
        "amenity": "fuel",
        "brand": "BP",
        "wheelchair": "limited"
      }
    },
    {
      "type": "node",
      "id": 129994343,
      "lat": 38.9584752,
      "lon": -9.4146994,
      "tags": {
        "amenity": "fuel",
        "name": "Galp"
      }
    },
    {
      "type": "node",
      "id": 129994589,
      "lat": 38.9821914,
      "lon": -9.4176863,
      "tags": {
        "amenity": "fuel",
        "created_by": "Potlatch 0.5c",
        "name": "Área de Serviço da Ericeira (BP)"
      }
    },
    {
      "type": "node",
      "id": 145997451,
      "lat": 38.7836334,
      "lon": -9.1921147,
      "tags": {
        "amenity": "fuel",
        "name": "Galp",
        "operator": "Galp"
      }
    },
    {
      "type": "node",
      "id": 196052478,
      "lat": 38.6961417,
      "lon": -9.4477789,
      "tags": {
        "amenity": "fuel",
        "name": "REPSOL",
        "operator": "Repsol"
      }
    },
    {
      "type": "node",
      "id": 196108263,
      "lat": 38.3921721,
      "lon": -8.5138629,
      "tags": {
        "amenity": "fuel",
        "created_by": "JOSM"
      }
    },
    {
      "type": "node",
      "id": 199687250,
      "lat": 37.1099533,
      "lon": -8.6766709,
      "tags": {
        "amenity": "fuel",
        "name": "CEPSA"
      }
    },
    {
      "type": "node",
      "id": 199687256,
      "lat": 37.1112096,
      "lon": -8.679626,
      "tags": {
        "amenity": "fuel",
        "operator": "GALP"
      }
    },
    {
      "type": "node",
      "id": 199687261,
      "lat": 37.1108385,
      "lon": -8.6797559,
      "tags": {
        "amenity": "fuel",
        "created_by": "Potlatch 0.9c",
        "operator": "GALP"
      }
    },
    {
      "type": "node",
      "id": 203707731,
      "lat": 37.1005368,
      "lon": -8.6695456,
      "tags": {
        "amenity": "fuel",
        "name": "BP"
      }
    },
    {
      "type": "node",
      "id": 230382132,
      "lat": 42.0814138,
      "lon": -6.6402417,
      "tags": {
        "amenity": "fuel",
        "name": "RepoSTAR, Antonio del Estal López"
      }
    },
    {
      "type": "node",
      "id": 239717466,
      "lat": 40.0640075,
      "lon": -8.6185533,
      "tags": {
        "amenity": "fuel",
        "name": "Repsol"
      }
    },
    {
      "type": "node",
      "id": 249481053,
      "lat": 39.5467722,
      "lon": -6.4118034,
      "tags": {
        "addr:city": "Casar de Cáceres",
        "addr:country": "ES",
        "addr:street": "CC-38",
        "amenity": "fuel",
        "is_in": "Cáceres;Extremadura;España;Europe",
        "is_in:city": "Casar de Cáceres",
        "is_in:continent": "Europe",
        "is_in:country": "España",
        "is_in:province": "Cáceres",
        "is_in:region": "Extremadura",
        "name": "E. S. Casar de Cáceres",
        "operator": "Cepsa"
      }
    },
    {
      "type": "node",
      "id": 249514779,
      "lat": 37.2713449,
      "lon": -6.3026064,
      "tags": {
        "amenity": "fuel"
      }
    },
    {
      "type": "node",
      "id": 250105490,
      "lat": 40.0830005,
      "lon": -8.3180745,
      "tags": {
        "amenity": "fuel",
        "created_by": "Potlatch 0.7b",
        "name": "Gaso Dueça"
      }
    },
    {
      "type": "node",
      "id": 250105548,
      "lat": 40.0955786,
      "lon": -8.3315512,
      "tags": {
        "amenity": "fuel",
        "created_by": "Potlatch 0.7b",
        "name": "Repsol"
      }
    },
    {
      "type": "node",
      "id": 251439079,
      "lat": 40.2169251,
      "lon": -7.6231596,
      "tags": {
        "amenity": "fuel",
        "created_by": "Potlatch 0.7b"
      }
    },
    {
      "type": "node",
      "id": 251492444,
      "lat": 41.7866564,
      "lon": -6.7745015,
      "tags": {
        "amenity": "fuel",
        "name": "GALP",
        "operator": "Galp"
      }
    },
    {
      "type": "node",
      "id": 253487550,
      "lat": 40.1145936,
      "lon": -8.5028766,
      "tags": {
        "amenity": "fuel",
        "name": "Cepsa"
      }
    },
    {
      "type": "node",
      "id": 253487567,
      "lat": 40.1146593,
      "lon": -8.5034774,
      "tags": {
        "amenity": "fuel",
        "name": "Cepsa"
      }
    },
    {
      "type": "node",
      "id": 253871891,
      "lat": 38.515097,
      "lon": -8.5840779,
      "tags": {
        "amenity": "fuel"
      }
    },
    {
      "type": "node",
      "id": 256074120,
      "lat": 37.1110549,
      "lon": -8.6626205,
      "tags": {
        "amenity": "fuel",
        "brand": "Repsol",
        "name": "Marina de Lagos",
        "operator": "Repsol"
      }
    },
    {
      "type": "node",
      "id": 256164559,
      "lat": 39.6999171,
      "lon": -8.8284518,
      "tags": {
        "amenity": "fuel"
      }
    },
    {
      "type": "node",
      "id": 258137754,
      "lat": 38.9654485,
      "lon": -8.9834599,
      "tags": {
        "amenity": "fuel",
        "name": "Galp",
        "wheelchair": "limited"
      }
    },
    {
      "type": "node",
      "id": 258137772,
      "lat": 38.9670726,
      "lon": -8.9831874,
      "tags": {
        "amenity": "fuel",
        "created_by": "Potlatch 0.8a",
        "name": "Galp"
      }
    },
    {
      "type": "node",
      "id": 259111342,
      "lat": 38.7655558,
      "lon": -9.165636,
      "tags": {
        "amenity": "fuel",
        "name": "Galp",
        "operator": "Galp"
      }
    },
    {
      "type": "node",
      "id": 259313917,
      "lat": 38.7634978,
      "lon": -6.8548231,
      "tags": {
        "amenity": "fuel",
        "operator": "CEPSA"
      }
    },
    {
      "type": "node",
      "id": 259315671,
      "lat": 39.2187133,
      "lon": -7.0073255,
      "tags": {
        "amenity": "fuel",
        "fuel:diesel": "yes",
        "operator": "Galp"
      }
    },
    {
      "type": "node",
      "id": 259317289,
      "lat": 38.8929037,
      "lon": -6.9705113,
      "tags": {
        "amenity": "fuel",
        "name": "GALP"
      }
    },
    {
      "type": "node",
      "id": 259317880,
      "lat": 38.8907632,
      "lon": -7.0142527,
      "tags": {
        "amenity": "fuel",
        "brand": "GALP",
        "designation": "ESTACION DE SERVICIO",
        "fuel:1_25": "yes",
        "fuel:1_50": "yes",
        "fuel:GTL_diesel": "yes",
        "fuel:HGV_diesel": "yes",
        "fuel:biodiesel": "no",
        "fuel:biogas": "no",
        "fuel:diesel": "yes",
        "fuel:e10": "yes",
        "fuel:e85": "yes",
        "fuel:lpg": "yes",
        "fuel:octane_100": "yes",
        "fuel:octane_91": "yes",
        "fuel:octane_95": "yes",
        "fuel:octane_98": "yes",
        "name": "AREA DE SERVICIO LAS BOVEDAS",
        "operator": "GALP"
      }
    },
    {
      "type": "node",
      "id": 262369830,
      "lat": 38.7624002,
      "lon": -9.1632943,
      "tags": {
        "amenity": "fuel",
        "fuel:diesel": "yes",
        "fuel:octane_95": "yes",
        "fuel:octane_98": "yes",
        "name": "BP",
        "opening_hours": "24/7",
        "operator": "BP"
      }
    },
    {
      "type": "node",
      "id": 262404996,
      "lat": 38.5291518,
      "lon": -8.8750466,
      "tags": {
        "amenity": "fuel",
        "name": "GALP"
      }
    },
    {
      "type": "node",
      "id": 262405060,
      "lat": 38.5257412,
      "lon": -8.8701351,
      "tags": {
        "amenity": "fuel",
        "brand": "BP",
        "name": "BP"
      }
    },
    {
      "type": "node",
      "id": 267274798,
      "lat": 38.7888889,
      "lon": -9.1689457,
      "tags": {
        "amenity": "fuel"
      }
    },
    {
      "type": "node",
      "id": 268253880,
      "lat": 38.7854964,
      "lon": -9.2082984,
      "tags": {
        "amenity": "fuel",
        "created_by": "Potlatch 0.9c",
        "name": "BP Famões"
      }
    },
    {
      "type": "node",
      "id": 268848124,
      "lat": 37.1199409,
      "lon": -8.672992,
      "tags": {
        "amenity": "fuel",
        "operator": "BP"
      }
    },
    {
      "type": "node",
      "id": 269332534,
      "lat": 37.1197796,
      "lon": -8.6733911,
      "tags": {
        "amenity": "fuel",
        "operator": "BP"
      }
    },
    {
      "type": "node",
      "id": 277800370,
      "lat": 38.8050027,
      "lon": -9.1577981,
      "tags": {
        "amenity": "fuel"
      }
    },
    {
      "type": "node",
      "id": 280081948,
      "lat": 41.1834592,
      "lon": -8.661749,
      "tags": {
        "amenity": "fuel"
      }
    },
    {
      "type": "node",
      "id": 280081950,
      "lat": 41.1841985,
      "lon": -8.6635885,
      "tags": {
        "amenity": "fuel"
      }
    },
    {
      "type": "node",
      "id": 285949956,
      "lat": 41.1479565,
      "lon": -8.6345464,
      "tags": {
        "amenity": "fuel",
        "name": "Repsol"
      }
    },
    {
      "type": "node",
      "id": 287011215,
      "lat": 37.889528,
      "lon": -6.555917,
      "tags": {
        "addr:street": "CR  N-433, 86,3- ARACENA (N-433 KM 86.5)",
        "amenity": "fuel",
        "fuel:GTL_diesel": "yes",
        "fuel:diesel": "yes",
        "fuel:octane_95": "yes",
        "fuel:octane_98": "yes",
        "is_in:municipality": "ARACENA",
        "is_in:province": "HUELVA",
        "name": "Estación de Servicio Orquín Gómez",
        "opening_hours": "Mo-Su 07:00-22:00",
        "operator": "Repsol",
        "source": "mityc 20100729"
      }
    },
    {
      "type": "node",
      "id": 287011216,
      "lat": 40.58159,
      "lon": -6.555955,
      "tags": {
        "addr:street": "CTRA. N-620 KM 327.407",
        "amenity": "fuel",
        "fuel:diesel": "yes",
        "fuel:octane_95": "yes",
        "fuel:octane_98": "yes",
        "is_in:municipality": "CIUDAD RODRIGO",
        "is_in:province": "SALAMANCA",
        "opening_hours": "Mo-Su 07:00-23:00",
        "source": "mityc 20100729"
      }
    },
    {
      "type": "node",
      "id": 287011217,
      "lat": 39.708455,
      "lon": -6.543943,
      "tags": {
        "addr:street": "C-522 KM 94.37",
        "amenity": "fuel",
        "fuel:diesel": "yes",
        "fuel:octane_95": "yes",
        "fuel:octane_98": "yes",
        "is_in:municipality": "GARROVILLAS DE ALCONETAR",
        "is_in:province": "CÁCERES",
        "name": "IBERDOEX",
        "opening_hours": "Mo-Su 07:00-22:00",
        "operator": "Independiente",
        "source": "mityc 20100729"
      }
    },
    {
      "type": "node",
      "id": 287011219,
      "lat": 37.381528,
      "lon": -6.552167,
      "tags": {
        "addr:housenumber": "8",
        "addr:street": "CALLE ALMONTE",
        "amenity": "fuel",
        "fuel:GTL_diesel": "yes",
        "fuel:diesel": "yes",
        "fuel:octane_95": "yes",
        "fuel:octane_98": "yes",
        "is_in:municipality": "PALMA DEL CONDADO (LA)",
        "is_in:province": "HUELVA",
        "name": "CEPSA",
        "opening_hours": "Mo 06:30-22:30",
        "operator": "Cepsa",
        "source": "mityc 20100729"
      }
    },
    {
      "type": "node",
      "id": 287011223,
      "lat": 37.0195177,
      "lon": -6.5610148,
      "tags": {
        "addr:street": "CARRETERA A-483 KM 40.5",
        "amenity": "fuel",
        "fuel:GTL_diesel": "yes",
        "fuel:diesel": "yes",
        "fuel:octane_95": "yes",
        "fuel:octane_98": "yes",
        "is_in:municipality": "TORRE DE LA HIGUERA O MATALASCAÑAS",
        "is_in:province": "HUELVA",
        "name": "REPSOL",
        "opening_hours": "Mo 06:30-22:30",
        "operator": "Repsol",
        "source": "mityc 20100729"
      }
    },
    {
      "type": "node",
      "id": 287011224,
      "lat": 37.89696,
      "lon": -6.56947,
      "tags": {
        "addr:street": "Vía de Servicio",
        "amenity": "fuel",
        "name": "Estación de Servicio San Ginés",
        "opening_hours": "Sa-Su 06:00-22:00",
        "operator": "Gasolineras Libres de Andalucía",
        "source": "mytic 20080811"
      }
    },
    {
      "type": "node",
      "id": 287011225,
      "lat": 37.351101,
      "lon": -6.598218,
      "tags": {
        "addr:street": "HV6131 km 5",
        "amenity": "fuel",
        "fuel:GTL_diesel": "yes",
        "fuel:diesel": "yes",
        "fuel:octane_95": "yes",
        "fuel:octane_98": "yes",
        "is_in:municipality": "VILLARRASA",
        "is_in:province": "HUELVA",
        "name": "REPSOL",
        "opening_hours": "Mo-Su 06:00-22:00",
        "operator": "Repsol",
        "source": "mityc 20100729"
      }
    },
    {
      "type": "node",
      "id": 287011232,
      "lat": 38.900015,
      "lon": -6.601589,
      "tags": {
        "addr:street": "EX-209 KM 37.5",
        "amenity": "fuel",
        "fuel:GTL_diesel": "yes",
        "fuel:diesel": "yes",
        "fuel:diesel_B": "yes",
        "fuel:octane_95": "yes",
        "fuel:octane_98": "yes",
        "is_in:municipality": "MONTIJO",
        "is_in:province": "BADAJOZ",
        "name": "CEPSA",
        "opening_hours": "24/7",
        "operator": "Cepsa",
        "source": "mityc 20100729"
      }
    },
    {
      "type": "node",
      "id": 287011236,
      "lat": 37.2331,
      "lon": -6.51189,
      "tags": {
        "amenity": "fuel",
        "name": "ESTACION DE SERVICIO PUER",
        "opening_hours": "Sa-Su 06:00-22:00",
        "source": "mytic 20080811"
      }
    },
    {
      "type": "node",
      "id": 287011237,
      "lat": 39.4509843,
      "lon": -6.502444,
      "tags": {
        "addr:city": "Malpartida de Cáceres",
        "addr:country": "ES",
        "addr:postcode": "10910",
        "addr:street": "Ctra. N-521",
        "amenity": "fuel",
        "is_in": "Malpartida de Cáceres;Cáceres;Extremadura;España;Europe",
        "is_in:city": "Malpartida de Cáceres",
        "is_in:continent": "Europe",
        "is_in:country": "España",
        "is_in:province": "Cáceres",
        "is_in:region": "Extremadura",
        "name": "E. S. Malpa",
        "opening_hours": "Sa-Su 07:00-22:00",
        "operator": "Iberdoex",
        "source": "mytic 20080811"
      }
    },
    {
      "type": "node",
      "id": 287011241,
      "lat": 39.984278,
      "lon": -6.518028,
      "tags": {
        "access": "private",
        "addr:street": "EX-108 km 87.400",
        "amenity": "fuel",
        "fuel:diesel": "yes",
        "fuel:diesel_B": "yes",
        "is_in:municipality": "CORIA",
        "is_in:province": "CÁCERES",
        "man_made": "works",
        "name": "COPAL",
        "opening_hours": "24/7",
        "source": "mityc 20100729"
      }
    },
    {
      "type": "node",
      "id": 287011243,
      "lat": 40.6014515,
      "lon": -6.5349048,
      "tags": {
        "amenity": "fuel",
        "name": "Campsa",
        "opening_hours": "Sa-Su 06:30-23:30",
        "operator": "Campsa",
        "source": "mytic 20080811"
      }
    },
    {
      "type": "node",
      "id": 287011244,
      "lat": 37.342386,
      "lon": -6.5325605,
      "tags": {
        "amenity": "fuel",
        "name": "SUTACON",
        "source": "mytic 20080811"
      }
    },
    {
      "type": "node",
      "id": 287011246,
      "lat": 40.6037201,
      "lon": -6.5289949,
      "tags": {
        "amenity": "fuel",
        "name": "Campsa",
        "opening_hours": "Sa-Su 24/7",
        "operator": "Campsa",
        "source": "mytic 20080811"
      }
    },
    {
      "type": "node",
      "id": 287011247,
      "lat": 39.969063,
      "lon": -6.5208755,
      "tags": {
        "amenity": "fuel",
        "name": "Repsol",
        "opening_hours": "Sa-Su 07:00-23:00",
        "operator": "Repsol",
        "source": "mytic 20080811"
      }
    },
    {
      "type": "node",
      "id": 287011250,
      "lat": 37.391083,
      "lon": -6.539028,
      "tags": {
        "addr:street": "CARRETERA A472 KM 48.7",
        "amenity": "fuel",
        "fuel:GTL_diesel": "yes",
        "fuel:diesel": "yes",
        "fuel:diesel_B": "yes",
        "fuel:octane_95": "yes",
        "is_in:municipality": "PALMA DEL CONDADO (LA)",
        "is_in:province": "HUELVA",
        "name": "CEPSA",
        "opening_hours": "Mo-Fr 07:00-20:00; Sa 07:00-14:30",
        "operator": "Cepsa",
        "source": "mityc 20100729"
      }
    },
    {
      "type": "node",
      "id": 287011251,
      "lat": 37.3591325,
      "lon": -6.5385265,
      "tags": {
        "addr:street": "LA PALMA A BOLLULLOS KM 3.2",
        "amenity": "fuel",
        "fuel:GTL_diesel": "yes",
        "fuel:diesel": "yes",
        "fuel:octane_95": "yes",
        "fuel:octane_98": "yes",
        "is_in:municipality": "PALMA DEL CONDADO (LA)",
        "is_in:province": "HUELVA",
        "name": "CARREFOUR",
        "opening_hours": "24/7",
        "operator": "Carrefour",
        "source": "mityc 20100729"
      }
    },
    {
      "type": "node",
      "id": 287011252,
      "lat": 39.4944736,
      "lon": -6.4182202,
      "tags": {
        "amenity": "fuel",
        "name": "Monte Bola",
        "opening_hours": "Sa-Su 06:00-22:00",
        "operator": "Petronor",
        "source": "mytic 20080811"
      }
    },
    {
      "type": "node",
      "id": 287011253,
      "lat": 38.433917,
      "lon": -6.421278,
      "tags": {
        "addr:street": "CORDOBA A BADAJOZ KM 71.3",
        "amenity": "fuel",
        "fuel:GTL_diesel": "yes",
        "fuel:diesel": "yes",
        "fuel:octane_95": "yes",
        "fuel:octane_98": "yes",
        "is_in:municipality": "ZAFRA",
        "is_in:province": "BADAJOZ",
        "name": "CARREFOUR",
        "opening_hours": "24/7",
        "operator": "Carrefour",
        "source": "mityc 20100729"
      }
    },
    {
      "type": "node",
      "id": 287011254,
      "lat": 38.677515,
      "lon": -6.422978,
      "tags": {
        "addr:street": "CTRA.ACEUCHAL S/N (CTRA.DON BENITO-OLIVENZA C-243 km 71.425)",
        "amenity": "fuel",
        "fuel:GTL_diesel": "yes",
        "fuel:diesel": "yes",
        "fuel:diesel_B": "yes",
        "fuel:octane_95": "yes",
        "fuel:octane_98": "yes",
        "is_in:municipality": "Almendralejo",
        "is_in:province": "Badajoz",
        "name": "GASOLINERA SAN ROQUE",
        "opening_hours": "Mo-Su 06:00-23:00",
        "source": "mityc 20100729"
      }
    },
    {
      "type": "node",
      "id": 287011256,
      "lat": 37.3483778,
      "lon": -6.4231719,
      "tags": {
        "amenity": "fuel",
        "name": "REPSOL",
        "opening_hours": "Sa-Su 24/7",
        "operator": "Repsol",
        "source": "mytic 20080811"
      }
    },
    {
      "type": "node",
      "id": 287011257,
      "lat": 38.687376,
      "lon": -6.429728,
      "tags": {
        "addr:street": "AVDA DE ARUA, 1 (AVDA DE ARUA,1 km NO)",
        "amenity": "fuel",
        "fuel:diesel": "yes",
        "fuel:octane_95": "yes",
        "is_in:municipality": "Almendralejo",
        "is_in:province": "Badajoz",
        "name": "AQUOIL",
        "opening_hours": "Mo-Su 06:00-22:00",
        "source": "mityc 20100729"
      }
    },
    {
      "type": "node",
      "id": 287011258,
      "lat": 40.6636489,
      "lon": -6.43799,
      "tags": {
        "amenity": "fuel",
        "name": "Repsol",
        "opening_hours": "Sa-Su 24/7",
        "operator": "Repsol",
        "source": "mytic 20080811"
      }
    },
    {
      "type": "node",
      "id": 287011260,
      "lat": 39.5481237,
      "lon": -6.4370039,
      "tags": {
        "amenity": "fuel",
        "name": "CAMPSA",
        "opening_hours": "Sa-Su 06:00-22:00",
        "operator": "Campsa",
        "source": "mytic 20080811"
      }
    },
    {
      "type": "node",
      "id": 287011261,
      "lat": 38.87992,
      "lon": -6.44806,
      "tags": {
        "amenity": "fuel",
        "name": "TOP-OIL",
        "opening_hours": "Sa-Su 24/7",
        "source": "mytic 20080811"
      }
    },
    {
      "type": "node",
      "id": 287011268,
      "lat": 39.9027382,
      "lon": -6.4733871,
      "tags": {
        "amenity": "fuel",
        "name": "CEPSA",
        "opening_hours": "Sa-Su 07:00-22:00",
        "operator": "Cepsa",
        "source": "mytic 20080811"
      }
    },
    {
      "type": "node",
      "id": 287011269,
      "lat": 38.919972,
      "lon": -6.482972,
      "tags": {
        "addr:street": "CR C-537, 11,1",
        "amenity": "fuel",
        "fuel:diesel": "yes",
        "fuel:octane_95": "yes",
        "is_in:municipality": "GARROVILLA (LA)",
        "is_in:province": "BADAJOZ",
        "name": "REPSOL",
        "opening_hours": "Mo-Fr 07:00-21:00; Sa 07:00-20:00; Su 08:00-14:00",
        "operator": "Repsol",
        "source": "mityc 20100806"
      }
    },
    {
      "type": "node",
      "id": 287011270,
      "lat": 38.640543,
      "lon": -6.4872,
      "tags": {
        "addr:street": "C-423 KM 40.6",
        "amenity": "fuel",
        "fuel:GTL_diesel": "yes",
        "fuel:diesel": "yes",
        "fuel:octane_95": "yes",
        "is_in:municipality": "ACEUCHAL",
        "is_in:province": "Badajoz",
        "name": "CAMPSA",
        "opening_hours": "Mo-Su 06:00-22:00",
        "operator": "Campsa",
        "source": "mityc 20100729"
      }
    },
    {
      "type": "node",
      "id": 287011275,
      "lat": 38.431642,
      "lon": -6.3989424,
      "tags": {
        "amenity": "fuel",
        "name": "IBERDOEX",
        "opening_hours": "Sa-Su 06:30-22:00",
        "source": "mytic 20080811"
      }
    },
    {
      "type": "node",
      "id": 287011281,
      "lat": 37.3870813,
      "lon": -6.3996595,
      "tags": {
        "amenity": "fuel",
        "name": "CEPSA",
        "operator": "Cepsa",
        "source": "mytic 20080811"
      }
    },
    {
      "type": "node",
      "id": 287011283,
      "lat": 38.6923881,
      "lon": -6.4055758,
      "tags": {
        "amenity": "fuel",
        "name": "Low Cost",
        "source": "survey"
      }
    },
    {
      "type": "node",
      "id": 287011286,
      "lat": 37.422407,
      "lon": -6.404524,
      "tags": {
        "access": "private",
        "addr:street": "VIRGEN DE LAS VIRTUDES,7",
        "amenity": "fuel",
        "fuel:diesel": "yes",
        "fuel:diesel_B": "yes",
        "is_in:municipality": "PATERNA DEL CAMPO",
        "is_in:province": "HUELVA",
        "name": "S.C.A. CAMPO DE PATERNA",
        "opening_hours": "Mo-Sa 07:00-15:00",
        "source": "mityc 20100729"
      }
    },
    {
      "type": "node",
      "id": 287011291,
      "lat": 38.404598,
      "lon": -6.406228,
      "tags": {
        "addr:street": "ZAFRA A MEDINA D LAS TORRES km 1.150",
        "amenity": "fuel",
        "fuel:diesel": "yes",
        "fuel:diesel_B": "yes",
        "fuel:octane_95": "yes",
        "fuel:octane_98": "yes",
        "is_in:municipality": "PUEBLA DE SANCHO PEREZ",
        "is_in:province": "BADAJOZ",
        "name": "GASOLINERA SANCHO PEREZ",
        "opening_hours": "Mo-Su 07:00-20:00",
        "source": "mityc 20100729"
      }
    },
    {
      "type": "node",
      "id": 287011302,
      "lat": 38.693278,
      "lon": -6.411111,
      "tags": {
        "addr:street": "CL.MECANICA, 12- (CTRA. ARROYO)",
        "amenity": "fuel",
        "fuel:GTL_diesel": "yes",
        "fuel:diesel": "yes",
        "fuel:octane_95": "yes",
        "is_in:municipality": "Almendralejo",
        "is_in:province": "Badajoz",
        "name": "SHELL",
        "opening_hours": "Mo-Su 06:30-22:30",
        "operator": "Shell",
        "source": "mityc 20100729"
      }
    },
    {
      "type": "node",
      "id": 287011304,
      "lat": 40.701173,
      "lon": -6.416678,
      "tags": {
        "addr:housenumber": "38",
        "addr:street": "Calle Majadal",
        "amenity": "fuel",
        "fuel:diesel": "yes",
        "fuel:octane_95": "yes",
        "fuel:octane_98": "yes",
        "is_in:municipality": "Sancti-Spíritus",
        "is_in:province": "Salamanca",
        "name": "Grandiesel",
        "opening_hours": "24/7",
        "source": "mityc 20100729"
      }
    },
    {
      "type": "node",
      "id": 287011307,
      "lat": 40.697466,
      "lon": -6.4164804,
      "tags": {
        "addr:street": "N-620 KM 309.2",
        "amenity": "fuel",
        "fuel:GTL_diesel": "yes",
        "fuel:diesel": "yes",
        "fuel:octane_95": "yes",
        "fuel:octane_98": "yes",
        "is_in:municipality": "Sancti-Spíritus",
        "is_in:province": "Salamanca",
        "name": "Shell",
        "opening_hours": "24/7",
        "operator": "Shell",
        "source": "mityc 20100729"
      }
    },
    {
      "type": "node",
      "id": 287011312,
      "lat": 38.4303921,
      "lon": -6.4171844,
      "tags": {
        "amenity": "fuel",
        "brand": "Repsol",
        "name": "Repsol",
        "opening_hours": "Sa-Su 07:00-23:00",
        "operator": "Repsol",
        "source": "mytic 20080811"
      }
    },
    {
      "type": "node",
      "id": 287011315,
      "lat": 38.7936,
      "lon": -6.37751,
      "tags": {
        "amenity": "fuel",
        "name": "MORENO",
        "opening_hours": "Sa-Su 06:00-22:00",
        "source": "mytic 20080811"
      }
    },
    {
      "type": "node",
      "id": 287011320,
      "lat": 38.441806,
      "lon": -6.374333,
      "tags": {
        "addr:housenumber": "105",
        "addr:street": "AVENIDA CONSTITUCION",
        "amenity": "fuel",
        "fuel:GTL_diesel": "yes",
        "fuel:diesel": "yes",
        "fuel:octane_95": "yes",
        "fuel:octane_98": "yes",
        "is_in:municipality": "SANTOS DE MAIMONA (LOS)",
        "is_in:province": "BADAJOZ",
        "name": "REPSOL",
        "opening_hours": "Mo-Su 06:00-22:00",
        "operator": "Repsol",
        "source": "mityc 20100729"
      }
    },
    {
      "type": "node",
      "id": 287011324,
      "lat": 38.447265,
      "lon": -6.368672,
      "tags": {
        "addr:housenumber": "24",
        "addr:street": "GUADIANA",
        "amenity": "fuel",
        "fuel:GTL_diesel": "yes",
        "fuel:diesel": "yes",
        "fuel:octane_95": "yes",
        "fuel:octane_98": "yes",
        "is_in:municipality": "SANTOS DE MAIMONA (LOS)",
        "is_in:province": "BADAJOZ",
        "name": "BP",
        "opening_hours": "Mo-Su 06:30-22:00",
        "operator": "BP",
        "source": "mityc 20100729"
      }
    },
    {
      "type": "node",
      "id": 287011330,
      "lat": 39.972705,
      "lon": -6.373082,
      "tags": {
        "addr:street": "CTRA. C-511 KM 74.600",
        "amenity": "fuel",
        "fuel:biodiesel": "yes",
        "fuel:diesel": "yes",
        "fuel:diesel_B": "yes",
        "fuel:octane_95": "yes",
        "is_in:municipality": "BATAN (EL)",
        "is_in:province": "CÁCERES",
        "name": "GALP",
        "opening_hours": "Mo 06:30-22:00",
        "operator": "Galp",
        "source": "mityc 20100729"
      }
    },
    {
      "type": "node",
      "id": 287011336,
      "lat": 38.90504,
      "lon": -6.36637,
      "tags": {
        "amenity": "fuel",
        "name": "REPSOL",
        "operator": "Repsol",
        "source": "mytic 20080811"
      }
    },
    {
      "type": "node",
      "id": 287011339,
      "lat": 39.4681958,
      "lon": -6.3963479,
      "tags": {
        "addr:city": "Cáceres",
        "addr:country": "ES",
        "addr:housenumber": "s/n",
        "addr:postcode": "10005",
        "addr:street": "Ctra. Valencia de Alcántara",
        "amenity": "fuel",
        "is_in": "Cáceres;Cáceres;Extremadura;España;Europe",
        "is_in:city": "Cáceres",
        "is_in:continent": "Europe",
        "is_in:country": "España",
        "is_in:province": "Cáceres",
        "is_in:region": "Extremadura",
        "name": "Carrefour",
        "opening_hours": "Sa-Su 07:00-22:00",
        "operator": "Carrefour",
        "phone": "+34 927 233 233",
        "source": "mytic 20080811"
      }
    },
    {
      "type": "node",
      "id": 287011341,
      "lat": 38.6809429,
      "lon": -6.3975633,
      "tags": {
        "amenity": "fuel",
        "name": "REPSOL",
        "opening_hours": "Sa-Su 06:00-23:00",
        "operator": "Repsol",
        "source": "mytic 20080811"
      }
    },
    {
      "type": "node",
      "id": 287011345,
      "lat": 38.687376,
      "lon": -6.391006,
      "tags": {
        "addr:housenumber": "km 1.9",
        "addr:street": "Carretera de Almendralejo a Palomas",
        "amenity": "fuel",
        "brand": "Iberdoex",
        "fuel:diesel": "yes",
        "fuel:octane_95": "yes",
        "fuel:octane_98": "yes",
        "is_in:municipality": "Almendralejo",
        "is_in:province": "Badajoz",
        "name": "E. S. SAN ISIDRO",
        "opening_hours": "Mo 06:00-22:00",
        "source": "mityc 20100729"
      }
    },
    {
      "type": "node",
      "id": 287011347,
      "lat": 38.894682,
      "lon": -6.386367,
      "tags": {
        "addr:street": "AVDA EXTREMADURA S/N",
        "amenity": "fuel",
        "fuel:GTL_diesel": "yes",
        "fuel:diesel": "yes",
        "fuel:diesel_B": "yes",
        "fuel:octane_95": "yes",
        "is_in:municipality": "CALAMONTE",
        "is_in:province": "BADAJOZ",
        "name": "CEPSA",
        "opening_hours": "Mo-Sa 06:00-22:00; Su 06:00-14:00",
        "operator": "Cepsa",
        "source": "mityc 20100729"
      }
    },
    {
      "type": "node",
      "id": 287011348,
      "lat": 39.7945887,
      "lon": -6.3854628,
      "tags": {
        "addr:housenumber": "P.K. 509,3",
        "addr:street": "Ctra. N-630",
        "amenity": "fuel",
        "fuel:GTL_diesel": "yes",
        "fuel:diesel": "yes",
        "fuel:octane_95": "yes",
        "is_in:municipality": "CAÑAVERAL",
        "is_in:province": "CÁCERES",
        "name": "LA PISTA S.L.",
        "opening_hours": "Mo-Fr 6:30-22:30; Sa-Su 8:00-22:30",
        "operator": "Petronor",
        "source": "mityc 20100729"
      }
    },
    {
      "type": "node",
      "id": 287011349,
      "lat": 39.462083,
      "lon": -6.3835,
      "tags": {
        "addr:city": "Cáceres",
        "addr:country": "ES",
        "addr:street": "AV. ALEMANIA- POL IND FRATRES PARC. 40",
        "amenity": "fuel",
        "fuel:GTL_diesel": "yes",
        "fuel:diesel": "yes",
        "fuel:octane_95": "yes",
        "fuel:octane_98": "yes",
        "is_in": "Cáceres;Cáceres;Extremadura;España;Europe",
        "is_in:city": "Cáceres",
        "is_in:continent": "Europe",
        "is_in:country": "España",
        "is_in:municipality": "Cáceres",
        "is_in:province": "Cáceres",
        "is_in:region": "Extremadura",
        "name": "REPSOL",
        "opening_hours": "24/7",
        "operator": "REPSOL",
        "source": "mityc 20100729"
      }
    },
    {
      "type": "node",
      "id": 287011351,
      "lat": 39.4537628,
      "lon": -6.3838448,
      "tags": {
        "addr:city": "Cáceres",
        "addr:country": "ES",
        "amenity": "fuel",
        "is_in": "Cáceres;Cáceres;Extremadura;España;Europe",
        "is_in:city": "Cáceres",
        "is_in:continent": "Europe",
        "is_in:country": "España",
        "is_in:province": "Cáceres",
        "is_in:region": "Extremadura",
        "name": "Pasarón",
        "opening_hours": "Sa-Su 24/7",
        "operator": "Cepsa",
        "source": "mytic 20080811"
      }
    },
    {
      "type": "node",
      "id": 287011355,
      "lat": 38.5676758,
      "lon": -6.350675,
      "tags": {
        "amenity": "fuel",
        "name": "REPSOL",
        "opening_hours": "Sa-Su 24/7",
        "operator": "Repsol",
        "source": "mytic 20080811"
      }
    },
    {
      "type": "node",
      "id": 287011356,
      "lat": 40.2915453,
      "lon": -6.3491879,
      "tags": {
        "addr:housenumber": "km 41",
        "addr:street": "Carretera de Coria a Las Hurdes",
        "amenity": "fuel",
        "fuel:GTL_diesel": "yes",
        "fuel:diesel": "yes",
        "fuel:diesel_B": "yes",
        "fuel:octane_95": "yes",
        "is_in:municipality": "PINOFRANQUEADO",
        "is_in:province": "CÁCERES",
        "name": "Estación de Servicio Las Hurdes",
        "opening_hours": "Mo-Su 07:30-20:30",
        "source": "mityc 20100729"
      }
    },
    {
      "type": "node",
      "id": 287011357,
      "lat": 39.442816,
      "lon": -6.348499,
      "tags": {
        "addr:street": "EX-206 KM 3.900",
        "amenity": "fuel",
        "fuel:GTL_diesel": "yes",
        "fuel:diesel": "yes",
        "fuel:octane_95": "yes",
        "fuel:octane_98": "yes",
        "is_in:municipality": "CACERES",
        "is_in:province": "CÁCERES",
        "name": "GALP",
        "opening_hours": "Mo-Su 07:00-22:00",
        "operator": "Galp",
        "source": "mityc 20100729"
      }
    },
    {
      "type": "node",
      "id": 287011362,
      "lat": 41.6972368,
      "lon": -6.3422832,
      "tags": {
        "addr:street": "CR N-122, 516,7 I",
        "amenity": "fuel",
        "fuel:GTL_diesel": "yes",
        "fuel:diesel": "yes",
        "fuel:octane_95": "yes",
        "fuel:octane_98": "yes",
        "is_in:municipality": "Alcañices",
        "is_in:province": "Zamora",
        "name": "Repsol",
        "opening_hours": "24/7",
        "operator": "Repsol",
        "source": "mityc 20100729"
      }
    },
    {
      "type": "node",
      "id": 287011364,
      "lat": 38.573861,
      "lon": -6.337139,
      "tags": {
        "addr:street": "CTRA. PALOMAS, S/N (CRUCE ROVOA CIRCUNVALACION B-6 KM 1.881)",
        "amenity": "fuel",
        "fuel:diesel": "yes",
        "fuel:octane_95": "yes",
        "is_in:municipality": "VILLAFRANCA DE LOS BARROS",
        "is_in:province": "Badajoz",
        "name": "(SIN RÓTULO)",
        "opening_hours": "24/7",
        "source": "mityc 20100806"
      }
    },
    {
      "type": "node",
      "id": 287011365,
      "lat": 39.453455,
      "lon": -6.365526,
      "tags": {
        "addr:city": "Cáceres",
        "addr:country": "ES",
        "addr:street": "CTRA.MEDELLIN km 2",
        "amenity": "fuel",
        "fuel:diesel": "yes",
        "fuel:octane_95": "yes",
        "fuel:octane_98": "yes",
        "is_in": "Cáceres;Cáceres;Extremadura;España;Europe",
        "is_in:city": "Cáceres",
        "is_in:continent": "Europe",
        "is_in:country": "España",
        "is_in:municipality": "Cáceres",
        "is_in:province": "Cáceres",
        "is_in:region": "Extremadura",
        "name": "SHELL",
        "opening_hours": "Mo 06:00-00:00",
        "operator": "Shell",
        "source": "mityc 20100729"
      }
    },
    {
      "type": "node",
      "id": 287011369,
      "lat": 38.4038204,
      "lon": -6.3605158,
      "tags": {
        "amenity": "fuel",
        "name": "Saras",
        "opening_hours": "Sa-Su 07:00-23:00",
        "operator": "Saras",
        "source": "mytic 20080811"
      }
    },
    {
      "type": "node",
      "id": 287011372,
      "lat": 38.5095927,
      "lon": -6.3542055,
      "tags": {
        "amenity": "fuel",
        "name": "TAMOIL",
        "opening_hours": "Sa-Su 07:00-22:00",
        "source": "mytic 20080811"
      }
    },
    {
      "type": "node",
      "id": 287011376,
      "lat": 38.5599038,
      "lon": -6.3498965,
      "tags": {
        "amenity": "fuel",
        "name": "CEPSA",
        "opening_hours": "Sa-Su 24/7",
        "operator": "Cepsa",
        "source": "mytic 20080811"
      }
    },
    {
      "type": "node",
      "id": 287011387,
      "lat": 37.3031459,
      "lon": -6.2880225,
      "tags": {
        "addr:street": "AVDA. DEL ALJARAFE, S/N",
        "amenity": "fuel",
        "fuel:GTL_diesel": "yes",
        "fuel:diesel": "yes",
        "fuel:octane_95": "yes",
        "fuel:octane_98": "yes",
        "is_in:municipality": "PILAS",
        "is_in:province": "SEVILLA",
        "name": "E.S.ALCARAYON (BP OIL)",
        "opening_hours": "24/7",
        "operator": "BP",
        "source": "mityc 20100729"
      }
    },
    {
      "type": "node",
      "id": 287011405,
      "lat": 39.05657,
      "lon": -6.32073,
      "tags": {
        "amenity": "fuel",
        "name": "ERG",
        "opening_hours": "Sa-Su 06:00-22:00",
        "operator": "ERG",
        "source": "mytic 20080811"
      }
    },
    {
      "type": "node",
      "id": 287011408,
      "lat": 37.3582187,
      "lon": -6.3236527,
      "tags": {
        "amenity": "fuel",
        "name": "A-49 PILAS",
        "opening_hours": "Sa-Su 24/7",
        "source": "mytic 20080811"
      }
    },
    {
      "type": "node",
      "id": 287011411,
      "lat": 37.30271,
      "lon": -6.289771,
      "tags": {
        "access": "private",
        "addr:housenumber": "94",
        "addr:street": "AVDA DEL ALJARAFE",
        "amenity": "fuel",
        "fuel:diesel": "yes",
        "fuel:diesel_B": "yes",
        "is_in:municipality": "PILAS",
        "is_in:province": "SEVILLA",
        "name": "COBELÉN",
        "opening_hours": "Mo 09:00-21:30",
        "source": "mityc 20100729"
      }
    },
    {
      "type": "node",
      "id": 287011413,
      "lat": 39.982139,
      "lon": -6.295278,
      "tags": {
        "addr:street": "CARRETERA EX-108 KM 65.500",
        "amenity": "fuel",
        "fuel:GTL_diesel": "yes",
        "fuel:diesel": "yes",
        "fuel:diesel_B": "yes",
        "fuel:octane_95": "yes",
        "fuel:octane_98": "yes",
        "is_in:municipality": "GALISTEO",
        "is_in:province": "CÁCERES",
        "name": "CEPSA",
        "opening_hours": "Mo-Su 07:00-22:00",
        "operator": "Cepsa",
        "source": "mityc 20100729"
      }
    },
    {
      "type": "node",
      "id": 287011417,
      "lat": 39.4648454,
      "lon": -6.296571,
      "tags": {
        "amenity": "fuel",
        "name": "GALP",
        "opening_hours": "Sa-Su 24/7",
        "operator": "Galp",
        "source": "mytic 20080811"
      }
    },
    {
      "type": "node",
      "id": 287011419,
      "lat": 37.2926523,
      "lon": -6.2995127,
      "tags": {
        "addr:street": "PILAS-VILLAMANRIQUE KM 1.5",
        "amenity": "fuel",
        "fuel:GTL_diesel": "yes",
        "fuel:diesel": "yes",
        "fuel:diesel_B": "yes",
        "fuel:octane_95": "yes",
        "fuel:octane_98": "yes",
        "is_in:municipality": "PILAS",
        "is_in:province": "SEVILLA",
        "name": "E.S. LOS VENTOLINES",
        "opening_hours": "Mo-Su 06:00-22:00",
        "operator": "Repsol",
        "source": "mityc 20100729"
      }
    },
    {
      "type": "node",
      "id": 287011421,
      "lat": 39.3795501,
      "lon": -6.2407062,
      "tags": {
        "amenity": "fuel",
        "name": "IBERDOEX",
        "opening_hours": "Sa-Su 07:00-22:00",
        "source": "mytic 20080811"
      }
    },
    {
      "type": "node",
      "id": 287011427,
      "lat": 40.060677,
      "lon": -6.259971,
      "tags": {
        "addr:street": "EX-370 KM 15.400",
        "amenity": "fuel",
        "fuel:biodiesel": "yes",
        "fuel:diesel": "yes",
        "fuel:octane_95": "yes",
        "is_in:municipality": "VALDEOBISPO",
        "is_in:province": "CÁCERES",
        "name": "NOVOA",
        "opening_hours": "Mo-Su 07:00-23:00",
        "source": "mityc 20100729"
      }
    },
    {
      "type": "node",
      "id": 287011429,
      "lat": 39.9157983,
      "lon": -6.2467899,
      "tags": {
        "addr:city": "Malpartida de Plasencia",
        "addr:country": "ES",
        "addr:housenumber": "p.k. 489,9",
        "addr:postcode": "10680",
        "addr:street": "Ctra. N-630",
        "amenity": "fuel",
        "name": "E.S. José M. Hernández",
        "opening_hours": "Sa-Su 24/7",
        "operator": "Repsol",
        "source": "mytic 20080811"
      }
    },
    {
      "type": "node",
      "id": 287011435,
      "lat": 41.0308321,
      "lon": -6.2192537,
      "tags": {
        "addr:city": "Villar de Peralonso",
        "addr:country": "ES",
        "addr:housenumber": "KM49",
        "addr:postcode": "37147",
        "addr:province": "Salamanca",
        "addr:street": "CL-517",
        "amenity": "fuel",
        "brand": "RepoSTAR",
        "fuel:diesel": "yes",
        "fuel:diesel_B": "yes",
        "fuel:octane_95": "yes",
        "fuel:octane_98": "yes",
        "is_in:municipality": "VILLAR DE PERALONSO",
        "is_in:province": "SALAMANCA",
        "name": "Estación de Servicio Prieto, S.L.",
        "opening_hours": "Mo-Su 07:00-23:00",
        "phone": "923518222",
        "source": "mityc 20100729"
      }
    },
    {
      "type": "node",
      "id": 287011460,
      "lat": 38.0838736,
      "lon": -6.2685734,
      "tags": {
        "addr:street": "CR N-630, 722,2",
        "amenity": "fuel",
        "fuel:GTL_diesel": "yes",
        "fuel:diesel": "yes",
        "fuel:octane_95": "yes",
        "fuel:octane_98": "yes",
        "is_in:municipality": "MONESTERIO",
        "is_in:province": "BADAJOZ",
        "name": "CAMPSA",
        "opening_hours": "Mo-Su 06:00-22:00",
        "operator": "Campsa",
        "source": "mityc 20100729"
      }
    },
    {
      "type": "node",
      "id": 287011471,
      "lat": 38.2908032,
      "lon": -6.2192911,
      "tags": {
        "amenity": "fuel",
        "name": "CAMPSA",
        "opening_hours": "Sa-Su 08:00-14:00,16:30-20:00",
        "operator": "Campsa",
        "source": "mytic 20080811"
      }
    },
    {
      "type": "node",
      "id": 287011479,
      "lat": 37.9042616,
      "lon": -6.221704,
      "tags": {
        "addr:housenumber": "70",
        "addr:street": "Calle Marina Española",
        "amenity": "fuel",
        "fuel:GTL_diesel": "yes",
        "fuel:diesel": "yes",
        "fuel:octane_95": "yes",
        "fuel:octane_98": "yes",
        "is_in:municipality": "Santa Olalla del Cala",
        "is_in:province": "Huelva",
        "name": "Repsol",
        "opening_hours": "Mo-Su 06:00-00:00",
        "operator": "Repsol",
        "source": "mityc 20100729"
      }
    },
    {
      "type": "node",
      "id": 287011745,
      "lat": 42.1067077,
      "lon": -8.3210614,
      "tags": {
        "addr:housenumber": "18",
        "addr:street": "CR PO-400",
        "amenity": "fuel",
        "fuel:GTL_diesel": "yes",
        "fuel:diesel": "yes",
        "fuel:octane_95": "yes",
        "fuel:octane_98": "yes",
        "is_in:municipality": "ARBO",
        "is_in:province": "PONTEVEDRA",
        "name": "CAMPSA",
        "opening_hours": "Mo 07:00-23:00",
        "operator": "Campsa",
        "source": "mityc 20100729"
      }
    },
    {
      "type": "node",
      "id": 287011778,
      "lat": 42.1419183,
      "lon": -8.4620816,
      "tags": {
        "addr:street": "A-52 SALIDA 291, CTRA PONTEAREAS- AS NEVES, km PO-9006",
        "amenity": "fuel",
        "fuel:diesel": "yes",
        "fuel:diesel_B": "yes",
        "fuel:octane_95": "yes",
        "fuel:octane_98": "yes",
        "is_in:municipality": "SALVATERRA DE MIÑO",
        "is_in:province": "PONTEVEDRA",
        "name": "GEDAS - A QUEIMADIÑA",
        "opening_hours": "24/7",
        "source": "mityc 20100729"
      }
    },
    {
      "type": "node",
      "id": 287011783,
      "lat": 42.034389,
      "lon": -7.973083,
      "tags": {
        "addr:housenumber": "58",
        "addr:street": "Rua Faustino Santalices",
        "amenity": "fuel",
        "fuel:diesel": "yes",
        "fuel:diesel_B": "yes",
        "fuel:octane_95": "yes",
        "fuel:octane_98": "yes",
        "is_in:municipality": "Bande",
        "is_in:province": "Ourense",
        "name": "Repsol",
        "opening_hours": "Mo-Su 07:00-23:00",
        "operator": "Repsol",
        "source": "mityc 20100729"
      }
    },
    {
      "type": "node",
      "id": 287011818,
      "lat": 42.13747,
      "lon": -8.18666,
      "tags": {
        "amenity": "fuel",
        "name": "GALP",
        "opening_hours": "Sa-Su 08:00-23:00",
        "operator": "Galp",
        "source": "mytic 20080811"
      }
    },
    {
      "type": "node",
      "id": 287011858,
      "lat": 42.1588254,
      "lon": -7.9500368,
      "tags": {
        "addr:street": "CR N-540, 21,9  D",
        "amenity": "fuel",
        "fuel:GTL_diesel": "yes",
        "fuel:diesel": "yes",
        "fuel:diesel_B": "yes",
        "fuel:octane_95": "yes",
        "fuel:octane_98": "yes",
        "is_in:municipality": "CELANOVA",
        "is_in:province": "OURENSE",
        "name": "REPSOL",
        "opening_hours": "Mo-Su 07:00-00:00",
        "operator": "Repsol",
        "source": "mityc 20100729"
      }
    },
    {
      "type": "node",
      "id": 287011860,
      "lat": 42.1273485,
      "lon": -7.9510395,
      "tags": {
        "addr:street": "Ctra. N-540 KM 28.000",
        "amenity": "fuel",
        "fuel:GTL_diesel": "yes",
        "fuel:diesel": "yes",
        "fuel:diesel_B": "yes",
        "fuel:octane_95": "yes",
        "fuel:octane_98": "yes",
        "is_in:municipality": "VEREA",
        "is_in:province": "OURENSE",
        "name": "GALP",
        "opening_hours": "24/7",
        "operator": "Galp",
        "source": "mityc 20100729"
      }
    },
    {
      "type": "node",
      "id": 287011902,
      "lat": 42.0193591,
      "lon": -7.6085381,
      "tags": {
        "addr:street": "CARRETERA N-525 KM 186.86",
        "amenity": "fuel",
        "fuel:GTL_diesel": "yes",
        "fuel:diesel": "yes",
        "fuel:diesel_B": "yes",
        "fuel:octane_95": "yes",
        "fuel:octane_98": "yes",
        "is_in:municipality": "TRASMIRAS",
        "is_in:province": "OURENSE",
        "name": "REPSOL",
        "opening_hours": "Mo-Su 06:00-23:00",
        "operator": "Repsol",
        "source": "mityc 20100729"
      }
    },
    {
      "type": "node",
      "id": 287011906,
      "lat": 42.0758508,
      "lon": -7.7271062,
      "tags": {
        "addr:street": "CL A DEVESA, S.N.",
        "amenity": "fuel",
        "fuel:GTL_diesel": "yes",
        "fuel:diesel": "yes",
        "fuel:diesel_B": "yes",
        "fuel:octane_95": "yes",
        "fuel:octane_98": "yes",
        "is_in:municipality": "XINZO DE LIMIA",
        "is_in:province": "OURENSE",
        "name": "REPSOL",
        "opening_hours": "Mo-Su 07:00-23:00",
        "operator": "Repsol",
        "source": "mityc 20100729"
      }
    },
    {
      "type": "node",
      "id": 287011917,
      "lat": 37.2262593,
      "lon": -7.2666289,
      "tags": {
        "addr:street": "HUELVA 4121 km 5300",
        "amenity": "fuel",
        "fuel:GTL_diesel": "yes",
        "fuel:diesel": "yes",
        "fuel:diesel_B": "yes",
        "fuel:octane_95": "yes",
        "fuel:octane_98": "yes",
        "is_in:municipality": "REDONDELA (LA)",
        "is_in:province": "HUELVA",
        "name": "HNOS. ORTA GONZÁLEZ DE LA REDONDELA, S.L.",
        "opening_hours": "Mo-Su 07:00-22:00",
        "source": "mityc 20100729"
      }
    },
    {
      "type": "node",
      "id": 287011920,
      "lat": 41.9845905,
      "lon": -7.2919097,
      "tags": {
        "addr:street": "CR N-525, 149,8  I",
        "amenity": "fuel",
        "fuel:GTL_diesel": "yes",
        "fuel:diesel": "yes",
        "fuel:diesel_B": "yes",
        "fuel:octane_95": "yes",
        "fuel:octane_98": "yes",
        "is_in:municipality": "VENTAS DA BARREIRA",
        "is_in:province": "OURENSE",
        "name": "PETRONOR",
        "opening_hours": "Mo-Su 07:00-23:00",
        "operator": "Petronor",
        "source": "mityc 20100729"
      }
    },
    {
      "type": "node",
      "id": 287011921,
      "lat": 39.3464493,
      "lon": -7.2982943,
      "tags": {
        "amenity": "fuel",
        "name": "Repsol",
        "opening_hours": "Sa-Su 07:00-23:00",
        "operator": "Repsol",
        "source": "mytic 20080811+survey"
      }
    },
    {
      "type": "node",
      "id": 287011923,
      "lat": 37.199278,
      "lon": -7.310028,
      "tags": {
        "addr:street": "PROLONGACION CALLE ESPAÑA, S/N",
        "amenity": "fuel",
        "fuel:GTL_diesel": "yes",
        "fuel:diesel": "yes",
        "fuel:octane_95": "yes",
        "fuel:octane_98": "yes",
        "is_in:municipality": "ISLA-CRISTINA",
        "is_in:province": "HUELVA",
        "name": "CAMPSA",
        "opening_hours": "Mo-Su 07:00-23:00",
        "operator": "Campsa",
        "source": "mityc 20100729"
      }
    },
    {
      "type": "node",
      "id": 287011924,
      "lat": 37.207306,
      "lon": -7.324222,
      "tags": {
        "addr:street": "H 412 km 4.900",
        "amenity": "fuel",
        "fuel:GTL_diesel": "yes",
        "fuel:diesel": "yes",
        "fuel:octane_95": "yes",
        "fuel:octane_98": "yes",
        "is_in:municipality": "ISLA-CRISTINA",
        "is_in:province": "HUELVA",
        "name": "REPSOL",
        "opening_hours": "Mo-Su 06:00-22:00",
        "operator": "Repsol",
        "source": "mityc 20100729"
      }
    },
    {
      "type": "node",
      "id": 287011928,
      "lat": 38.3791566,
      "lon": -7.1680991,
      "tags": {
        "addr:street": "CRUCE DE CARRETERA C-4311-BAV",
        "amenity": "fuel",
        "fuel:GTL_diesel": "yes",
        "fuel:diesel": "yes",
        "fuel:diesel_B": "yes",
        "fuel:octane_95": "yes",
        "is_in:municipality": "VILLANUEVA DEL FRESNO",
        "is_in:province": "BADAJOZ",
        "name": "IBERDOEX",
        "opening_hours": "Mo-Su 07:00-22:00",
        "source": "mityc 20100729"
      }
    },
    {
      "type": "node",
      "id": 287011929,
      "lat": 37.2423568,
      "lon": -7.205809,
      "tags": {
        "addr:street": "CTRA. LEPE-LA ANTILLA KM 0.9",
        "amenity": "fuel",
        "fuel:diesel": "yes",
        "fuel:diesel_B": "yes",
        "fuel:octane_95": "yes",
        "fuel:octane_98": "yes",
        "is_in:municipality": "LEPE",
        "is_in:province": "HUELVA",
        "name": "(SIN RÓTULO)",
        "opening_hours": "Mo-Su 08:00-22:00",
        "source": "mityc 20100729"
      }
    },
    {
      "type": "node",
      "id": 287011930,
      "lat": 37.23635,
      "lon": -7.20886,
      "tags": {
        "amenity": "fuel",
        "name": "VALDESEQUILLO S.L",
        "opening_hours": "Sa-Su 07:00-23:00",
        "source": "mytic 20080811"
      }
    },
    {
      "type": "node",
      "id": 287011936,
      "lat": 37.2531637,
      "lon": -7.2360729,
      "tags": {
        "addr:housenumber": "686",
        "addr:street": "CR N-431",
        "amenity": "fuel",
        "fuel:diesel": "yes",
        "fuel:diesel_B": "yes",
        "fuel:octane_95": "yes",
        "fuel:octane_98": "yes",
        "is_in:municipality": "LEPE",
        "is_in:province": "HUELVA",
        "name": "REPSOL",
        "opening_hours": "Mo-Su 09:00-21:00",
        "operator": "Repsol",
        "source": "mityc 20100729"
      }
    },
    {
      "type": "node",
      "id": 287011949,
      "lat": 41.939472,
      "lon": -7.445944,
      "tags": {
        "addr:housenumber": "83",
        "addr:street": "Avenida San Lazaro",
        "amenity": "fuel",
        "fuel:GTL_diesel": "yes",
        "fuel:diesel": "yes",
        "fuel:octane_95": "yes",
        "fuel:octane_98": "yes",
        "is_in:municipality": "Verín",
        "is_in:province": "Ourense",
        "name": "Repsol",
        "opening_hours": "Mo-Su 06:00-22:00",
        "operator": "Repsol",
        "source": "mityc 20100729"
      }
    },
    {
      "type": "node",
      "id": 287011953,
      "lat": 37.21699,
      "lon": -7.39219,
      "tags": {
        "amenity": "fuel",
        "name": "ERG",
        "opening_hours": "Sa-Su 06:00-22:00",
        "operator": "ERG",
        "source": "mytic 20080811"
      }
    },
    {
      "type": "node",
      "id": 287011965,
      "lat": 37.23982,
      "lon": -7.38186,
      "tags": {
        "amenity": "fuel",
        "name": "ERG",
        "opening_hours": "Sa-Su 24/7",
        "operator": "ERG",
        "source": "mytic 20080811"
      }
    },
    {
      "type": "node",
      "id": 287011971,
      "lat": 41.945472,
      "lon": -7.415861,
      "tags": {
        "addr:street": "CARRETERA N-525 KM 165.18",
        "amenity": "fuel",
        "fuel:GTL_diesel": "yes",
        "fuel:diesel": "yes",
        "fuel:diesel_B": "yes",
        "fuel:octane_95": "yes",
        "fuel:octane_98": "yes",
        "is_in:municipality": "VERIN",
        "is_in:province": "OURENSE",
        "name": "REPSOL",
        "opening_hours": "24/7",
        "operator": "Repsol",
        "source": "mityc 20100729"
      }
    },
    {
      "type": "node",
      "id": 287011975,
      "lat": 37.257889,
      "lon": -7.018417,
      "tags": {
        "addr:housenumber": "1",
        "addr:street": "Calle Cerámica",
        "amenity": "fuel",
        "fuel:diesel": "yes",
        "fuel:octane_95": "yes",
        "is_in:municipality": "ALJARAQUE",
        "is_in:province": "HUELVA",
        "name": "GALP",
        "opening_hours": "Mo-Fr 07:00-23:00; Sa-Su 09:00-23:00",
        "operator": "Galp",
        "source": "mityc 20100729"
      }
    },
    {
      "type": "node",
      "id": 287011977,
      "lat": 38.867932,
      "lon": -6.989867,
      "tags": {
        "addr:street": "C/ JOSE MARÍA ALCARAZ Y ALENDA S/N",
        "amenity": "fuel",
        "fuel:GTL_diesel": "yes",
        "fuel:diesel": "yes",
        "fuel:octane_95": "yes",
        "fuel:octane_98": "yes",
        "is_in:municipality": "Badajoz",
        "is_in:province": "Badajoz",
        "name": "CARREFOUR",
        "opening_hours": "Mo-Sa 09:00-22:00",
        "operator": "Carrefour",
        "source": "mityc 20100729"
      }
    },
    {
      "type": "node",
      "id": 287011978,
      "lat": 38.672321,
      "lon": -6.990867,
      "tags": {
        "addr:street": "CTRA.BADAJOZ-VALVERDE LEGANES KM 0.24",
        "amenity": "fuel",
        "fuel:GTL_diesel": "yes",
        "fuel:diesel": "yes",
        "fuel:octane_95": "yes",
        "is_in:municipality": "VALVERDE DE LEGANES",
        "is_in:province": "BADAJOZ",
        "name": "IBERDOEX",
        "opening_hours": "Mo-Su 07:00-22:00",
        "source": "mityc 20100729"
      }
    },
    {
      "type": "node",
      "id": 287011979,
      "lat": 38.8835997,
      "lon": -7.0488382,
      "tags": {
        "FIXME": "Está situado en Portugal",
        "addr:street": "AUTOVIA A5 KM 405.715",
        "amenity": "fuel",
        "fuel:GTL_diesel": "yes",
        "fuel:diesel": "yes",
        "fuel:octane_95": "yes",
        "fuel:octane_98": "yes",
        "is_in:municipality": "BADAJOZ",
        "is_in:province": "BADAJOZ",
        "name": "GALP",
        "opening_hours": "24/7",
        "operator": "Galp",
        "source": "mityc 20100813"
      }
    },
    {
      "type": "node",
      "id": 287011983,
      "lat": 38.883571,
      "lon": -7.0272,
      "tags": {
        "addr:street": "N-V (MADRID-LISBOA) KM 409.820",
        "amenity": "fuel",
        "fuel:diesel": "yes",
        "fuel:octane_95": "yes",
        "fuel:octane_98": "yes",
        "is_in:municipality": "BADAJOZ",
        "is_in:province": "BADAJOZ",
        "name": "TOP-OIL",
        "opening_hours": "24/7",
        "operator": "Top-Oil",
        "source": "mityc 20100729"
      }
    },
    {
      "type": "node",
      "id": 287011985,
      "lat": 38.850932,
      "lon": -6.967561,
      "tags": {
        "addr:street": "CTRA.BA-200 KM 2.6",
        "amenity": "fuel",
        "fuel:GTL_diesel": "yes",
        "fuel:diesel": "yes",
        "fuel:octane_95": "yes",
        "fuel:octane_98": "yes",
        "is_in:municipality": "Badajoz",
        "is_in:province": "Badajoz",
        "name": "SHELL",
        "opening_hours": "Mo-Su 07:00-23:00",
        "operator": "Shell",
        "source": "mityc 20100729"
      }
    },
    {
      "type": "node",
      "id": 287011987,
      "lat": 38.861459,
      "lon": -6.971478,
      "tags": {
        "addr:street": "CTRA. VALVERDE DE LEGANES KM 1.0",
        "amenity": "fuel",
        "fuel:GTL_diesel": "yes",
        "fuel:diesel": "yes",
        "fuel:octane_95": "yes",
        "fuel:octane_98": "yes",
        "is_in:municipality": "Badajoz",
        "is_in:province": "Badajoz",
        "name": "CARREFOUR",
        "opening_hours": "24/7",
        "operator": "Carrefour",
        "source": "mityc 20100729"
      }
    },
    {
      "type": "node",
      "id": 287011989,
      "lat": 38.9063495,
      "lon": -6.9652048,
      "tags": {
        "addr:street": "CTRA. EX-100 KM 85.6",
        "amenity": "fuel",
        "fuel:GTL_diesel": "yes",
        "fuel:diesel": "yes",
        "fuel:octane_95": "yes",
        "fuel:octane_98": "yes",
        "is_in:municipality": "Badajoz",
        "is_in:province": "Badajoz",
        "name": "REPSOL",
        "opening_hours": "24/7",
        "operator": "Repsol",
        "source": "mityc 20100729; survey"
      }
    },
    {
      "type": "node",
      "id": 287011991,
      "lat": 38.846028,
      "lon": -6.966111,
      "tags": {
        "addr:street": "CR BA-200 K.M. 3.2",
        "amenity": "fuel",
        "fuel:GTL_diesel": "yes",
        "fuel:diesel": "yes",
        "fuel:octane_95": "yes",
        "fuel:octane_98": "yes",
        "is_in:municipality": "Badajoz",
        "is_in:province": "Badajoz",
        "name": "Las Vaguadas S.A.L. (BP)",
        "opening_hours": "Mo-Su 07:00-23:00",
        "operator": "BP",
        "source": "mityc 20100729"
      }
    },
    {
      "type": "node",
      "id": 287011997,
      "lat": 37.2902659,
      "lon": -7.138434,
      "tags": {
        "amenity": "fuel",
        "layer": "1",
        "name": "Carrefour",
        "opening_hours": "Mo-Sa 10/22",
        "source": "mytic 20080811"
      }
    },
    {
      "type": "node",
      "id": 287012000,
      "lat": 39.3635583,
      "lon": -7.1341591,
      "tags": {
        "addr:street": "AVDA BADAJOZ 89",
        "amenity": "fuel",
        "fuel:diesel": "yes",
        "fuel:octane_95": "yes",
        "fuel:octane_98": "yes",
        "is_in:municipality": "SAN VICENTE DE ALCANTARA",
        "is_in:province": "BADAJOZ",
        "name": "JOYMAR",
        "opening_hours": "Mo 07:00-23:00",
        "source": "mityc 20100729"
      }
    },
    {
      "type": "node",
      "id": 287012001,
      "lat": 37.291556,
      "lon": -7.1320829,
      "tags": {
        "addr:street": "CR N-431, KM 109.41 km 109.41",
        "amenity": "fuel",
        "fuel:GTL_diesel": "yes",
        "fuel:diesel": "yes",
        "fuel:octane_95": "yes",
        "fuel:octane_98": "yes",
        "is_in:municipality": "CARTAYA",
        "is_in:province": "HUELVA",
        "name": "Shell",
        "opening_hours": "24/7",
        "operator": "Shell",
        "source": "mityc 20100729"
      }
    },
    {
      "type": "node",
      "id": 287012002,
      "lat": 38.3827351,
      "lon": -7.1538818,
      "tags": {
        "amenity": "fuel",
        "name": "CAMPSA",
        "operator": "Campsa",
        "source": "mytic 20080811"
      }
    },
    {
      "type": "node",
      "id": 287012008,
      "lat": 37.293167,
      "lon": -7.150139,
      "tags": {
        "access": "private",
        "addr:street": "CARTAYA-TARIQUEJO km 1",
        "amenity": "fuel",
        "fuel:diesel": "yes",
        "fuel:diesel_B": "yes",
        "is_in:municipality": "CARTAYA",
        "is_in:province": "HUELVA",
        "name": "CARTAYFRES",
        "opening_hours": "24/7",
        "source": "mityc 20100729"
      }
    },
    {
      "type": "node",
      "id": 287012011,
      "lat": 38.6878786,
      "lon": -7.0949438,
      "tags": {
        "addr:street": "CR C-436 23,8",
        "amenity": "fuel",
        "fuel:diesel": "yes",
        "fuel:octane_95": "yes",
        "is_in:municipality": "OLIVENZA",
        "is_in:province": "BADAJOZ",
        "name": "CAMPSA",
        "opening_hours": "Mo-Su 08:00-21:00",
        "operator": "Campsa",
        "source": "mityc 20100729"
      }
    },
    {
      "type": "node",
      "id": 287012022,
      "lat": 37.44421,
      "lon": -7.09858,
      "tags": {
        "amenity": "fuel",
        "name": "ERG",
        "opening_hours": "Sa-Su 06:00-22:00",
        "operator": "ERG",
        "source": "mytic 20080811"
      }
    },
    {
      "type": "node",
      "id": 287012024,
      "lat": 38.88652,
      "lon": -6.85976,
      "tags": {
        "amenity": "fuel",
        "name": "IBERDOEX",
        "opening_hours": "Sa-Su 07:00-22:00",
        "source": "mytic 20080811"
      }
    },
    {
      "type": "node",
      "id": 287012025,
      "lat": 37.19746,
      "lon": -6.87272,
      "tags": {
        "amenity": "fuel",
        "name": "REPSOL",
        "opening_hours": "Sa-Su 07:00-23:00",
        "operator": "Repsol",
        "source": "mytic 20080811"
      }
    },
    {
      "type": "node",
      "id": 287012030,
      "lat": 37.2785,
      "lon": -6.829194,
      "tags": {
        "addr:street": "CTRA, A-494 KM 6.200",
        "amenity": "fuel",
        "fuel:GTL_diesel": "yes",
        "fuel:biodiesel": "yes",
        "fuel:diesel": "yes",
        "fuel:diesel_B": "yes",
        "fuel:octane_95": "yes",
        "fuel:octane_98": "yes",
        "is_in:municipality": "MOGUER",
        "is_in:province": "HUELVA",
        "name": "PLATERO",
        "opening_hours": "24/7",
        "source": "mityc 20100729"
      }
    },
    {
      "type": "node",
      "id": 287012031,
      "lat": 37.264851,
      "lon": -6.838579,
      "tags": {
        "addr:street": "A-494 km 7.100",
        "amenity": "fuel",
        "fuel:GTL_diesel": "yes",
        "fuel:diesel": "yes",
        "fuel:diesel_B": "yes",
        "fuel:octane_95": "yes",
        "fuel:octane_98": "yes",
        "is_in:municipality": "MOGUER",
        "is_in:province": "HUELVA",
        "name": "REPSOL",
        "opening_hours": "Mo 07:00-23:00",
        "operator": "Repsol",
        "source": "mityc 20100729"
      }
    },
    {
      "type": "node",
      "id": 287012037,
      "lat": 37.311833,
      "lon": -6.856944,
      "tags": {
        "access": "private",
        "addr:street": "CARRETERA A-472 SEVILLA - HUELVA KM 78.5",
        "amenity": "fuel",
        "fuel:diesel": "yes",
        "fuel:diesel_B": "yes",
        "is_in:municipality": "SAN JUAN DEL PUERTO",
        "is_in:province": "HUELVA",
        "name": "VALLE ANCHO",
        "opening_hours": "Mo-Sa 09:00-13:30,16:00-19:00",
        "source": "mityc 20100729"
      }
    },
    {
      "type": "node",
      "id": 287012040,
      "lat": 37.39305,
      "lon": -6.82619,
      "tags": {
        "amenity": "fuel",
        "name": "ERG PETROLEOS",
        "opening_hours": "Sa-Su 07:00-23:00",
        "operator": "ERG",
        "source": "mytic 20080811"
      }
    },
    {
      "type": "node",
      "id": 287012042,
      "lat": 37.271129,
      "lon": -6.827607,
      "tags": {
        "access": "private",
        "addr:street": "CM/ MONTEMAYOR, S/Nº",
        "amenity": "fuel",
        "fuel:diesel": "yes",
        "fuel:diesel_B": "yes",
        "is_in:municipality": "MOGUER",
        "is_in:province": "HUELVA",
        "name": "CUNA DE PLATERO",
        "opening_hours": "24/7",
        "source": "mityc 20100729"
      }
    },
    {
      "type": "node",
      "id": 287012046,
      "lat": 38.614778,
      "lon": -6.81775,
      "tags": {
        "addr:street": "CR N-435, 34,8",
        "amenity": "fuel",
        "fuel:GTL_diesel": "yes",
        "fuel:diesel": "yes",
        "fuel:diesel_B": "yes",
        "fuel:octane_95": "yes",
        "is_in:municipality": "ALMENDRAL",
        "is_in:province": "BADAJOZ",
        "name": "CAMPSA",
        "opening_hours": "Mo 07:00-23:00",
        "operator": "Campsa",
        "source": "mityc 20100729"
      }
    },
    {
      "type": "node",
      "id": 287012047,
      "lat": 37.138694,
      "lon": -6.822806,
      "tags": {
        "addr:street": "Ctra. A-494 KM 24.500",
        "amenity": "fuel",
        "fuel:GTL_diesel": "yes",
        "fuel:diesel": "yes",
        "fuel:octane_95": "yes",
        "fuel:octane_98": "yes",
        "is_in:municipality": "MAZAGON",
        "is_in:province": "HUELVA",
        "name": "GALP",
        "opening_hours": "Mo-Su 07:00-23:00",
        "operator": "Galp",
        "source": "mityc 20100729"
      }
    },
    {
      "type": "node",
      "id": 287012049,
      "lat": 37.266639,
      "lon": -6.952111,
      "tags": {
        "addr:housenumber": "25",
        "addr:street": "AVENIDA CRISTOBAL COLON",
        "amenity": "fuel",
        "fuel:GTL_diesel": "yes",
        "fuel:diesel": "yes",
        "fuel:octane_95": "yes",
        "fuel:octane_98": "yes",
        "is_in:municipality": "HUELVA",
        "is_in:province": "HUELVA",
        "name": "CEPSA",
        "opening_hours": "24/7",
        "operator": "Cepsa",
        "source": "mityc 20100729"
      }
    },
    {
      "type": "node",
      "id": 287012052,
      "lat": 37.363444,
      "lon": -6.961167,
      "tags": {
        "addr:city": "Gibraleon",
        "addr:postcode": "21500",
        "addr:street": "CR N-431,  KM 89.1",
        "amenity": "fuel",
        "fuel:GTL_diesel": "yes",
        "fuel:diesel": "yes",
        "fuel:diesel_B": "yes",
        "fuel:octane_95": "yes",
        "is_in:municipality": "GIBRALEON",
        "is_in:province": "HUELVA",
        "name": "REPSOL",
        "note": "Horarios de 7:00 a 22:00 horas",
        "opening_hours": "Mo-Sa 07:00-22:00; Su 08:00-22:00",
        "operator": "Repsol",
        "source": "mityc 20100729"
      }
    },
    {
      "type": "node",
      "id": 287012056,
      "lat": 37.2561756,
      "lon": -6.9415508,
      "tags": {
        "amenity": "fuel",
        "name": "REPSOL",
        "opening_hours": "Sa-Su 24/7",
        "operator": "Repsol",
        "source": "mytic 20080811"
      }
    },
    {
      "type": "node",
      "id": 287012057,
      "lat": 38.85814,
      "lon": -6.94725,
      "tags": {
        "amenity": "fuel",
        "name": "GALP",
        "opening_hours": "Sa-Su 24/7",
        "operator": "Galp",
        "source": "mytic 20080811"
      }
    },
    {
      "type": "node",
      "id": 287012058,
      "lat": 38.9213273,
      "lon": -6.9448961,
      "tags": {
        "addr:street": "EX-100 KM 82.9",
        "amenity": "fuel",
        "fuel:GTL_diesel": "yes",
        "fuel:diesel": "yes",
        "fuel:octane_95": "yes",
        "fuel:octane_98": "yes",
        "is_in:municipality": "GEVORA DEL CAUDILLO",
        "is_in:province": "Badajoz",
        "name": "CEPSA",
        "opening_hours": "Mo-Su 07:00-23:00",
        "operator": "Cepsa",
        "source": "mityc 20100729"
      }
    },
    {
      "type": "node",
      "id": 287012060,
      "lat": 37.263329,
      "lon": -6.9196517,
      "tags": {
        "amenity": "fuel",
        "name": "TYCSA",
        "opening_hours": "Sa-Su 06:30-22:30",
        "source": "mytic 20080811"
      }
    },
    {
      "type": "node",
      "id": 287012061,
      "lat": 37.18332,
      "lon": -6.91911,
      "tags": {
        "amenity": "fuel",
        "name": "E.S. CENA",
        "opening_hours": "Sa-Su 06:00-22:00",
        "source": "mytic 20080811"
      }
    },
    {
      "type": "node",
      "id": 287012062,
      "lat": 37.271056,
      "lon": -6.9296863,
      "tags": {
        "amenity": "fuel",
        "name": "CAMPSA",
        "opening_hours": "Sa-Su 24/7",
        "operator": "Campsa",
        "source": "mytic 20080811"
      }
    },
    {
      "type": "node",
      "id": 287012064,
      "lat": 38.88779,
      "lon": -6.92112,
      "tags": {
        "amenity": "fuel",
        "name": "ERG",
        "opening_hours": "Sa-Su 07:00-23:00",
        "operator": "ERG",
        "source": "mytic 20080811"
      }
    },
    {
      "type": "node",
      "id": 287012066,
      "lat": 37.272778,
      "lon": -6.910194,
      "tags": {
        "addr:street": "CARRETERA A472 KM. 85",
        "amenity": "fuel",
        "fuel:GTL_diesel": "yes",
        "fuel:diesel": "yes",
        "fuel:diesel_B": "yes",
        "fuel:octane_95": "yes",
        "fuel:octane_98": "yes",
        "is_in:municipality": "HUELVA",
        "is_in:province": "HUELVA",
        "name": "CEPSA",
        "opening_hours": "Mo-Su 06:30-23:00",
        "operator": "Cepsa",
        "source": "mityc 20100729"
      }
    },
    {
      "type": "node",
      "id": 287012069,
      "lat": 37.2712136,
      "lon": -6.91832,
      "tags": {
        "addr:city": "Huelva",
        "addr:country": "ES",
        "addr:housenumber": "s/n",
        "addr:postcode": "21007",
        "addr:street": "Ronda Exterior Zona Sur",
        "amenity": "fuel",
        "name": "CARREFOUR",
        "opening_hours": "Sa-Su 24/7",
        "source": "mytic 20080811"
      }
    },
    {
      "type": "node",
      "id": 287012070,
      "lat": 37.2725199,
      "lon": -6.9172437,
      "tags": {
        "addr:street": "RONDA NORTE KM 8.5",
        "amenity": "fuel",
        "fuel:biodiesel": "yes",
        "fuel:diesel": "yes",
        "fuel:octane_95": "yes",
        "fuel:octane_98": "yes",
        "is_in:municipality": "HUELVA",
        "is_in:province": "HUELVA",
        "name": "TYCSA",
        "opening_hours": "Mo-Su 06:30-22:30",
        "source": "mityc 20100729"
      }
    },
    {
      "type": "node",
      "id": 287012073,
      "lat": 40.5907833,
      "lon": -6.7074522,
      "tags": {
        "amenity": "fuel",
        "name": "Cepsa",
        "opening_hours": "Sa-Su 07:00-23:00",
        "operator": "Cepsa",
        "source": "mytic 20080811"
      }
    },
    {
      "type": "node",
      "id": 287012075,
      "lat": 38.13457,
      "lon": -6.69384,
      "tags": {
        "amenity": "fuel",
        "name": "MEROIL",
        "opening_hours": "Sa-Su 07:00-23:00",
        "operator": "Meroil",
        "source": "mytic 20080811"
      }
    },
    {
      "type": "node",
      "id": 287012076,
      "lat": 38.88693,
      "lon": -6.70151,
      "tags": {
        "amenity": "fuel",
        "name": "IBERDOEX",
        "opening_hours": "Sa-Su 06:00-23:00",
        "source": "mytic 20080811"
      }
    },
    {
      "type": "node",
      "id": 287012077,
      "lat": 38.726932,
      "lon": -6.672311,
      "tags": {
        "addr:street": "BA-V9032 KM 30.650",
        "amenity": "fuel",
        "fuel:diesel": "yes",
        "fuel:diesel_B": "yes",
        "fuel:octane_95": "yes",
        "is_in:municipality": "CORTE DE PELEAS",
        "is_in:province": "BADAJOZ",
        "name": "CAMPASA",
        "opening_hours": "Mo-Su 07:00-21:00",
        "source": "mityc 20100729"
      }
    },
    {
      "type": "node",
      "id": 287012079,
      "lat": 37.351472,
      "lon": -6.676222,
      "tags": {
        "addr:housenumber": "8",
        "addr:street": "POLIGONO LOS BERMEJALES",
        "amenity": "fuel",
        "fuel:GTL_diesel": "yes",
        "fuel:diesel": "yes",
        "fuel:diesel_B": "yes",
        "fuel:octane_95": "yes",
        "is_in:municipality": "NIEBLA",
        "is_in:province": "HUELVA",
        "name": "REPSOL",
        "opening_hours": "Mo-Su 07:00-23:00",
        "operator": "Repsol",
        "source": "mityc 20100729"
      }
    },
    {
      "type": "node",
      "id": 287012080,
      "lat": 37.323722,
      "lon": -6.666333,
      "tags": {
        "access": "private",
        "addr:street": "POLG. I. EL CORCHITO, II FASE",
        "amenity": "fuel",
        "fuel:diesel": "yes",
        "fuel:diesel_B": "yes",
        "is_in:municipality": "BONARES",
        "is_in:province": "HUELVA",
        "name": "BONAFRU",
        "opening_hours": "Mo-Su 07:00-21:00",
        "source": "mityc 20100729"
      }
    },
    {
      "type": "node",
      "id": 287012081,
      "lat": 37.364167,
      "lon": -6.67225,
      "tags": {
        "addr:street": "CARRETERA A472 KM 60.750",
        "amenity": "fuel",
        "fuel:diesel": "yes",
        "fuel:diesel_B": "yes",
        "fuel:octane_95": "yes",
        "is_in:municipality": "NIEBLA",
        "is_in:province": "HUELVA",
        "name": "CEPSA",
        "opening_hours": "Mo-Su 06:30-22:30",
        "operator": "Cepsa",
        "source": "mityc 20100729"
      }
    },
    {
      "type": "node",
      "id": 287012084,
      "lat": 38.840194,
      "lon": -6.646389,
      "tags": {
        "addr:street": "CR A-5, 369,8",
        "amenity": "fuel",
        "fuel:GTL_diesel": "yes",
        "fuel:diesel": "yes",
        "fuel:octane_95": "yes",
        "is_in:municipality": "LOBON",
        "is_in:province": "BADAJOZ",
        "name": "CAMPSA",
        "opening_hours": "Mo-Su 06:00-00:00",
        "operator": "Campsa",
        "source": "mityc 20100729"
      }
    },
    {
      "type": "node",
      "id": 287012090,
      "lat": 38.902404,
      "lon": -6.608033,
      "tags": {
        "addr:street": "CRTA.LOBON-LA ROCA KM.5.300",
        "amenity": "fuel",
        "fuel:GTL_diesel": "yes",
        "fuel:diesel": "yes",
        "fuel:diesel_B": "yes",
        "fuel:octane_95": "yes",
        "fuel:octane_98": "yes",
        "is_in:municipality": "MONTIJO",
        "is_in:province": "BADAJOZ",
        "name": "BP",
        "opening_hours": "24/7",
        "operator": "BP",
        "source": "mityc 20100729"
      }
    },
    {
      "type": "node",
      "id": 287012091,
      "lat": 40.386889,
      "lon": -6.60825,
      "tags": {
        "addr:street": "CR C-526, 90 D",
        "amenity": "fuel",
        "fuel:diesel": "yes",
        "fuel:diesel_B": "yes",
        "fuel:diesel_b": "yes",
        "fuel:octane_95": "yes",
        "is_in:municipality": "Robleda",
        "is_in:province": "Salamanca",
        "name": "Campsa",
        "opening_hours": "Mo-Sa 07:00-22:00; Su 08:00-22:00",
        "operator": "Repsol",
        "source": "mityc 20100729"
      }
    },
    {
      "type": "node",
      "id": 287012093,
      "lat": 38.865293,
      "lon": -6.811395,
      "tags": {
        "addr:street": "AUTOVIA A-5 KM 384.700",
        "amenity": "fuel",
        "fuel:GTL_diesel": "yes",
        "fuel:diesel": "yes",
        "fuel:octane_95": "yes",
        "fuel:octane_98": "yes",
        "is_in:municipality": "TALAVERA LA REAL",
        "is_in:province": "BADAJOZ",
        "name": "06/47986/98",
        "opening_hours": "24/7",
        "source": "mityc 20100729"
      }
    },
    {
      "type": "node",
      "id": 287012095,
      "lat": 37.422583,
      "lon": -6.79925,
      "tags": {
        "addr:street": "CTRA.N-435 km 210",
        "amenity": "fuel",
        "fuel:biodiesel": "yes",
        "fuel:diesel": "yes",
        "fuel:octane_95": "yes",
        "fuel:octane_98": "yes",
        "is_in:municipality": "BEAS",
        "is_in:province": "HUELVA",
        "name": "SIN ROTULO",
        "opening_hours": "Mo 07:00-23:00",
        "source": "mityc 20100806"
      }
    },
    {
      "type": "node",
      "id": 287012096,
      "lat": 37.51525,
      "lon": -6.797639,
      "tags": {
        "addr:street": "N-435 KM 198.9",
        "amenity": "fuel",
        "fuel:biodiesel": "yes",
        "fuel:diesel": "yes",
        "fuel:octane_95": "yes",
        "fuel:octane_98": "yes",
        "is_in:municipality": "VALVERDE DEL CAMINO",
        "is_in:province": "HUELVA",
        "name": "DISAGON",
        "opening_hours": "24/7",
        "source": "mityc 20100806"
      }
    },
    {
      "type": "node",
      "id": 287012098,
      "lat": 40.591792,
      "lon": -6.7924869,
      "tags": {
        "amenity": "fuel",
        "name": "Cepsa",
        "opening_hours": "Sa-Su 24/7",
        "operator": "Cepsa",
        "source": "mytic 20080811"
      }
    },
    {
      "type": "node",
      "id": 287012102,
      "lat": 40.11015,
      "lon": -6.78655,
      "tags": {
        "amenity": "fuel",
        "name": "E.S. SIERRA DE GATA",
        "opening_hours": "Sa-Su 07:00-23:00",
        "source": "mytic 20080811"
      }
    },
    {
      "type": "node",
      "id": 287012105,
      "lat": 38.520139,
      "lon": -6.783639,
      "tags": {
        "addr:street": "CTRA. NOGALES S/N",
        "amenity": "fuel",
        "fuel:GTL_diesel": "yes",
        "fuel:diesel": "yes",
        "fuel:diesel_B": "yes",
        "fuel:octane_95": "yes",
        "is_in:municipality": "SALVALEON",
        "is_in:province": "BADAJOZ",
        "name": "IBERDOEX",
        "opening_hours": "Mo-Su 07:00-22:00",
        "source": "mityc 20100729"
      }
    },
    {
      "type": "node",
      "id": 287012108,
      "lat": 38.872432,
      "lon": -6.763811,
      "tags": {
        "addr:street": "AVDA. DE EXTREMADURA, S/N (ANTIGUA N-V)",
        "amenity": "fuel",
        "fuel:biodiesel": "yes",
        "fuel:diesel": "yes",
        "fuel:diesel_B": "yes",
        "fuel:octane_95": "yes",
        "fuel:octane_98": "yes",
        "is_in:municipality": "TALAVERA LA REAL",
        "is_in:province": "BADAJOZ",
        "name": "(SIN RÓTULO)",
        "opening_hours": "Mo-Su 06:00-22:00",
        "source": "mityc 20100729"
      }
    },
    {
      "type": "node",
      "id": 287012113,
      "lat": 37.307768,
      "lon": -6.732246,
      "tags": {
        "access": "private",
        "addr:street": "CAMINO DE LAS COLMENILLAS, S/N",
        "amenity": "fuel",
        "fuel:diesel": "yes",
        "fuel:diesel_B": "yes",
        "is_in:municipality": "LUCENA DEL PUERTO",
        "is_in:province": "HUELVA",
        "name": "S.C.A.COSTA DE HUELVA",
        "opening_hours": "24/7",
        "source": "mityc 20100729"
      }
    },
    {
      "type": "node",
      "id": 287012115,
      "lat": 38.8522725,
      "lon": -6.7127232,
      "tags": {
        "addr:street": "CTRA. N-V, PK KM 375.86",
        "amenity": "fuel",
        "fuel:diesel": "yes",
        "fuel:octane_95": "yes",
        "fuel:octane_98": "yes",
        "is_in:municipality": "TALAVERA LA REAL",
        "is_in:province": "BADAJOZ",
        "name": "SARAS",
        "opening_hours": "24/7",
        "operator": "Saras",
        "source": "mityc 20100729"
      }
    },
    {
      "type": "node",
      "id": 287012119,
      "lat": 42.1091512,
      "lon": -8.6186626,
      "tags": {
        "addr:street": "PG INDUSTRIAL A GRANXA SN",
        "amenity": "fuel",
        "fuel:GTL_diesel": "yes",
        "fuel:diesel": "yes",
        "fuel:octane_95": "yes",
        "fuel:octane_98": "yes",
        "is_in:municipality": "PORRIÑO (O)",
        "is_in:province": "PONTEVEDRA",
        "name": "REPSOL",
        "opening_hours": "Mo-Su 06:00-00:00",
        "operator": "Repsol",
        "source": "mityc 20100729"
      }
    },
    {
      "type": "node",
      "id": 287012123,
      "lat": 42.069626,
      "lon": -8.631987,
      "tags": {
        "addr:street": "CTRA. NACIONAL 550, KM 167.2",
        "amenity": "fuel",
        "fuel:biodiesel": "yes",
        "fuel:diesel": "yes",
        "fuel:octane_95": "yes",
        "fuel:octane_98": "yes",
        "is_in:municipality": "PUENTE NUEVO",
        "is_in:province": "PONTEVEDRA",
        "name": "SERTUY",
        "opening_hours": "Mo-Su 07:00-23:00",
        "source": "mityc 20100729"
      }
    },
    {
      "type": "node",
      "id": 287012124,
      "lat": 42.069514,
      "lon": -8.631459,
      "tags": {
        "addr:street": "CTRA. NACIONAL 550, KM 167.2",
        "amenity": "fuel",
        "fuel:diesel": "yes",
        "fuel:octane_95": "yes",
        "fuel:octane_98": "yes",
        "is_in:municipality": "PUENTE NUEVO",
        "is_in:province": "PONTEVEDRA",
        "name": "SERTUY",
        "opening_hours": "24/7",
        "source": "mityc 20100729"
      }
    },
    {
      "type": "node",
      "id": 287012137,
      "lat": 42.0414511,
      "lon": -8.6475285,
      "tags": {
        "addr:street": "CL AVENIDA DE PORTUGAL, S.N.",
        "amenity": "fuel",
        "fuel:GTL_diesel": "yes",
        "fuel:diesel": "yes",
        "fuel:octane_95": "yes",
        "fuel:octane_98": "yes",
        "is_in:municipality": "TUI",
        "is_in:province": "PONTEVEDRA",
        "name": "CAMPSA",
        "opening_hours": "24/7",
        "operator": "Campsa",
        "source": "mityc 20100729"
      }
    },
    {
      "type": "node",
      "id": 287012155,
      "lat": 42.1569123,
      "lon": -8.6650441,
      "tags": {
        "addr:street": "CTRA. PO-331, KM 6.1",
        "amenity": "fuel",
        "fuel:diesel": "yes",
        "fuel:octane_95": "yes",
        "fuel:octane_98": "yes",
        "is_in:municipality": "PARDELLAS",
        "is_in:province": "PONTEVEDRA",
        "opening_hours": "Mo-Su 06:30-22:30",
        "operator": "E. S. TUY S.L. (SAN COSME)",
        "source": "mityc 20100729"
      }
    },
    {
      "type": "node",
      "id": 287012162,
      "lat": 42.145642,
      "lon": -8.4766832,
      "tags": {
        "addr:street": "AUTOVIA A52 km 292",
        "amenity": "fuel",
        "brand": "Cepsa",
        "fuel:GTL_diesel": "yes",
        "fuel:diesel": "yes",
        "fuel:octane_95": "yes",
        "fuel:octane_98": "yes",
        "is_in:municipality": "PONTEAREAS",
        "is_in:province": "PONTEVEDRA",
        "name": "CEPSA",
        "opening_hours": "24/7",
        "source": "mityc 20100729"
      }
    },
    {
      "type": "node",
      "id": 287012228,
      "lat": 42.16229,
      "lon": -8.80143,
      "tags": {
        "amenity": "fuel",
        "name": "REPSOL",
        "opening_hours": "Sa-Su 07:00-23:00",
        "operator": "Repsol",
        "source": "mytic 20080811"
      }
    },
    {
      "type": "node",
      "id": 287012243,
      "lat": 41.9121405,
      "lon": -8.8512874,
      "tags": {
        "addr:city": "A Guarda (Pontevedra)",
        "addr:housenumber": "33",
        "addr:postcode": "36780",
        "addr:street": "Estrada de San Roque",
        "amenity": "fuel",
        "fuel:GTL_diesel": "yes",
        "fuel:diesel": "yes",
        "fuel:octane_95": "yes",
        "fuel:octane_98": "yes",
        "is_in:municipality": "SALCIDOS",
        "is_in:province": "PONTEVEDRA",
        "name": "Repsol",
        "opening_hours": "24/7",
        "operator": "Repsol",
        "phone": "+34 986 60 90 41",
        "source": "mityc 20100729",
        "website": "http://www.estaciondeserviciosanroque.es/"
      }
    },
    {
      "type": "node",
      "id": 287012347,
      "lat": 41.917499,
      "lon": -8.8794077,
      "tags": {
        "addr:street": "CR PO-552 P.K. 44",
        "amenity": "fuel",
        "fuel:GTL_diesel": "yes",
        "fuel:diesel": "yes",
        "fuel:octane_95": "yes",
        "fuel:octane_98": "yes",
        "is_in:municipality": "GUARDA (A)",
        "is_in:province": "PONTEVEDRA",
        "name": "PETRONOR",
        "opening_hours": "Mo-Su 07:00-23:00",
        "operator": "Petronor",
        "source": "mityc 20100729"
      }
    },
    {
      "type": "node",
      "id": 287012349,
      "lat": 42.033305,
      "lon": -8.8822102,
      "tags": {
        "amenity": "fuel",
        "name": "Repsol",
        "opening_hours": "Sa-Su 07:00-23:00",
        "operator": "Repsol",
        "source": "mytic 20080811"
      }
    },
    {
      "type": "node",
      "id": 287012388,
      "lat": 41.972528,
      "lon": -8.749556,
      "tags": {
        "addr:street": "CARRETERA PO-550 KM. 186",
        "amenity": "fuel",
        "fuel:GTL_diesel": "yes",
        "fuel:diesel": "yes",
        "fuel:octane_95": "yes",
        "fuel:octane_98": "yes",
        "is_in:municipality": "TOMIÑO",
        "is_in:province": "PONTEVEDRA",
        "name": "CEPSA",
        "opening_hours": "Mo 06:30-22:30",
        "operator": "Cepsa",
        "source": "mityc 20100729"
      }
    },
    {
      "type": "node",
      "id": 287012390,
      "lat": 41.972833,
      "lon": -8.750028,
      "tags": {
        "addr:street": "CARRETERA PO-550 KM. 184",
        "amenity": "fuel",
        "fuel:GTL_diesel": "yes",
        "fuel:diesel": "yes",
        "fuel:octane_95": "yes",
        "fuel:octane_98": "yes",
        "is_in:municipality": "TOMIÑO",
        "is_in:province": "PONTEVEDRA",
        "name": "CEPSA",
        "opening_hours": "24/7",
        "operator": "Cepsa",
        "source": "mityc 20100729"
      }
    },
    {
      "type": "node",
      "id": 287458462,
      "lat": 41.1962727,
      "lon": -8.6106884,
      "tags": {
        "amenity": "fuel",
        "operator": "Repsol"
      }
    },
    {
      "type": "node",
      "id": 288349758,
      "lat": 41.4875078,
      "lon": -7.9636073,
      "tags": {
        "amenity": "fuel",
        "name": "Avia"
      }
    },
    {
      "type": "node",
      "id": 290840272,
      "lat": 38.6475892,
      "lon": -8.9932188,
      "tags": {
        "amenity": "fuel",
        "brand": "BP",
        "fuel:biodiesel": "no",
        "fuel:octane_95": "yes",
        "fuel:octane_98": "yes",
        "name": "BP",
        "operator": "BP"
      }
    },
    {
      "type": "node",
      "id": 290915379,
      "lat": 38.7273353,
      "lon": -8.9870857,
      "tags": {
        "amenity": "fuel"
      }
    },
    {
      "type": "node",
      "id": 290915382,
      "lat": 38.7259751,
      "lon": -8.9880137,
      "tags": {
        "amenity": "fuel",
        "brand": "Galp",
        "operator": "Galp"
      }
    },
    {
      "type": "node",
      "id": 291928851,
      "lat": 38.701873,
      "lon": -8.9601611,
      "tags": {
        "addr:city": "Montijo",
        "addr:postcode": "2870 - 803",
        "addr:street": "Rua Vasco da Gama",
        "amenity": "fuel",
        "fuel:diesel": "yes",
        "fuel:octane_95": "yes",
        "fuel:octane_98": "yes",
        "name": "E.Leclerc",
        "opening_hours": "24/7",
        "operator": "E.Leclerc"
      }
    },
    {
      "type": "node",
      "id": 292282736,
      "lat": 40.7559575,
      "lon": -8.536884,
      "tags": {
        "amenity": "fuel",
        "name": "Repsol"
      }
    },
    {
      "type": "node",
      "id": 292322085,
      "lat": 37.189222,
      "lon": -6.8678019,
      "tags": {
        "amenity": "fuel"
      }
    },
    {
      "type": "node",
      "id": 295067438,
      "lat": 39.4261782,
      "lon": -6.6909599,
      "tags": {
        "addr:city": "Aliseda",
        "addr:country": "ES",
        "addr:street": "Ctra. N-521",
        "amenity": "fuel",
        "is_in": "Aliseda;Cáceres;Extremadura;España;Europe",
        "is_in:city": "Aliseda",
        "is_in:continent": "Europe",
        "is_in:country": "España",
        "is_in:province": "Cáceres",
        "is_in:region": "Extremadura",
        "name": "E.S. Carretero",
        "operator": "Independiente"
      }
    },
    {
      "type": "node",
      "id": 297318763,
      "lat": 41.1925757,
      "lon": -8.3068138,
      "tags": {
        "amenity": "fuel"
      }
    },
    {
      "type": "node",
      "id": 298898741,
      "lat": 38.7554493,
      "lon": -9.2409012,
      "tags": {
        "amenity": "fuel",
        "name": "BP"
      }
    },
    {
      "type": "node",
      "id": 305862255,
      "lat": 38.687034,
      "lon": -9.3527126,
      "tags": {
        "amenity": "fuel",
        "name": "Galp",
        "operator": "Galp"
      }
    },
    {
      "type": "node",
      "id": 305862256,
      "lat": 38.6855768,
      "lon": -9.3520045,
      "tags": {
        "amenity": "fuel",
        "created_by": "Merkaartor 0.11",
        "name": "Rede Energia - Parede"
      }
    },
    {
      "type": "node",
      "id": 308123449,
      "lat": 38.7087711,
      "lon": -9.1314894,
      "tags": {
        "amenity": "fuel"
      }
    },
    {
      "type": "node",
      "id": 309785026,
      "lat": 38.703815,
      "lon": -9.4000832,
      "tags": {
        "addr:city": "Estoril",
        "addr:postcode": "2765-249",
        "addr:street": "Avenida Marginal",
        "amenity": "fuel",
        "brand": "BP",
        "name": "BP",
        "operator": "Disbrand Trading, LDA.",
        "phone": "214683200",
        "survey:date": "2014-03-01"
      }
    },
    {
      "type": "node",
      "id": 309785045,
      "lat": 38.7032422,
      "lon": -9.3973254,
      "tags": {
        "amenity": "fuel",
        "brand": "BP",
        "name": "BP",
        "operator": "BP"
      }
    },
    {
      "type": "node",
      "id": 309816093,
      "lat": 38.7112827,
      "lon": -9.3935226,
      "tags": {
        "amenity": "fuel",
        "name": "GALP"
      }
    },
    {
      "type": "node",
      "id": 309816127,
      "lat": 38.712678,
      "lon": -9.3939165,
      "tags": {
        "amenity": "fuel",
        "name": "Repsol"
      }
    },
    {
      "type": "node",
      "id": 309816128,
      "lat": 38.7141826,
      "lon": -9.3899434,
      "tags": {
        "amenity": "fuel",
        "brand": "Repsol",
        "name": "Bombas Repsol"
      }
    },
    {
      "type": "node",
      "id": 310163324,
      "lat": 38.7111655,
      "lon": -9.2144715,
      "tags": {
        "amenity": "fuel",
        "brand": "BP"
      }
    },
    {
      "type": "node",
      "id": 310164246,
      "lat": 38.6938505,
      "lon": -9.2177224,
      "tags": {
        "amenity": "fuel",
        "name": "BP"
      }
    },
    {
      "type": "node",
      "id": 319309625,
      "lat": 41.2629025,
      "lon": -8.5633698,
      "tags": {
        "amenity": "fuel",
        "brand": "GALP",
        "name": "Area Serviço S. M. Coronado"
      }
    },
    {
      "type": "node",
      "id": 319309630,
      "lat": 41.2647038,
      "lon": -8.5643246,
      "tags": {
        "amenity": "fuel",
        "brand": "GALP",
        "name": "Area Serviço S. M. Coronado"
      }
    },
    {
      "type": "node",
      "id": 319836278,
      "lat": 39.7132216,
      "lon": -8.711613,
      "tags": {
        "amenity": "fuel",
        "brand": "Repsol",
        "operator": "Repsol"
      }
    },
    {
      "type": "node",
      "id": 319836279,
      "lat": 39.7124667,
      "lon": -8.7095277,
      "tags": {
        "amenity": "fuel",
        "brand": "Repsol",
        "operator": "Repsol"
      }
    },
    {
      "type": "node",
      "id": 320080129,
      "lat": 39.1243311,
      "lon": -8.9070142,
      "tags": {
        "amenity": "fuel"
      }
    },
    {
      "type": "node",
      "id": 320080132,
      "lat": 39.121879,
      "lon": -8.9085979,
      "tags": {
        "amenity": "fuel"
      }
    },
    {
      "type": "node",
      "id": 320193982,
      "lat": 37.3468213,
      "lon": -6.4231008,
      "tags": {
        "amenity": "fuel",
        "name": "REPSOL",
        "opening_hours": "Sa-Su 24/7",
        "operator": "Repsol"
      }
    },
    {
      "type": "node",
      "id": 320278456,
      "lat": 38.7326745,
      "lon": -9.2797582,
      "tags": {
        "amenity": "fuel",
        "created_by": "Potlatch 0.10f",
        "operator": "Repsol"
      }
    },
    {
      "type": "node",
      "id": 320284048,
      "lat": 38.7295209,
      "lon": -9.3016193,
      "tags": {
        "amenity": "fuel",
        "name": "Repsol",
        "operator": "Repsol"
      }
    },
    {
      "type": "node",
      "id": 320406676,
      "lat": 38.7021611,
      "lon": -9.308365,
      "tags": {
        "amenity": "fuel"
      }
    },
    {
      "type": "node",
      "id": 320406700,
      "lat": 38.7026258,
      "lon": -9.304618,
      "tags": {
        "amenity": "fuel",
        "name": "GALP"
      }
    },
    {
      "type": "node",
      "id": 320406701,
      "lat": 38.6998672,
      "lon": -9.3062854,
      "tags": {
        "amenity": "fuel",
        "name": "GALP"
      }
    },
    {
      "type": "node",
      "id": 329850862,
      "lat": 38.9549884,
      "lon": -9.340521,
      "tags": {
        "amenity": "fuel",
        "operator": "Repsol"
      }
    },
    {
      "type": "node",
      "id": 329852100,
      "lat": 38.9415635,
      "lon": -9.330172,
      "tags": {
        "amenity": "fuel",
        "operator": "Galp"
      }
    },
    {
      "type": "node",
      "id": 329854370,
      "lat": 38.9313478,
      "lon": -9.330694,
      "tags": {
        "amenity": "fuel",
        "source": "Bing"
      }
    },
    {
      "type": "node",
      "id": 330601394,
      "lat": 39.4693361,
      "lon": -6.3826375,
      "tags": {
        "addr:city": "Cáceres",
        "addr:country": "ES",
        "amenity": "fuel",
        "is_in": "Cáceres;Cáceres;Extremadura;España;Europe",
        "is_in:city": "Cáceres",
        "is_in:continent": "Europe",
        "is_in:country": "España",
        "is_in:province": "Cáceres",
        "is_in:region": "Extremadura",
        "name": "Mirat",
        "operator": "Repsol"
      }
    },
    {
      "type": "node",
      "id": 342279957,
      "lat": 39.8828238,
      "lon": -6.2760791,
      "tags": {
        "addr:city": "Malpartida de Plasencia",
        "addr:country": "ES",
        "addr:housenumber": "km 494",
        "addr:postcode": "10680",
        "addr:street": "Autovía A-66",
        "amenity": "fuel",
        "is_in": "Casar de Cáceres;Cáceres;Extremadura;España;Europe",
        "is_in:city": "Malpartida de Plasencia",
        "is_in:continent": "Europe",
        "is_in:country": "España",
        "is_in:province": "Cáceres",
        "is_in:region": "Extremadura",
        "name": "E.S. Vía de la Plata",
        "opening_hours": "24/7",
        "operator": "Repsol"
      }
    },
    {
      "type": "node",
      "id": 345226052,
      "lat": 39.1642481,
      "lon": -6.2641598,
      "tags": {
        "addr:street": "N-630 km 590",
        "amenity": "fuel",
        "name": "Cruce de las Herrerías",
        "opening_hours": "24/7",
        "operator": "Repsol"
      }
    },
    {
      "type": "node",
      "id": 346265028,
      "lat": 39.5697857,
      "lon": -8.3932757,
      "tags": {
        "amenity": "fuel",
        "name": "Posto de Combustível - GALP"
      }
    },
    {
      "type": "node",
      "id": 349133839,
      "lat": 38.5969052,
      "lon": -9.1057401,
      "tags": {
        "amenity": "fuel",
        "brand": "BP",
        "name": "BOMBAS BP"
      }
    },
    {
      "type": "node",
      "id": 349349156,
      "lat": 37.1364128,
      "lon": -8.1111852,
      "tags": {
        "amenity": "fuel",
        "brand": "Galp",
        "operator": "Galp"
      }
    },
    {
      "type": "node",
      "id": 355020443,
      "lat": 38.7457667,
      "lon": -9.1397079,
      "tags": {
        "amenity": "fuel"
      }
    },
    {
      "type": "node",
      "id": 356287357,
      "lat": 38.7252643,
      "lon": -9.4428877,
      "tags": {
        "amenity": "fuel",
        "name": "Repsol"
      }
    },
    {
      "type": "node",
      "id": 356287660,
      "lat": 38.7197039,
      "lon": -9.4413797,
      "tags": {
        "amenity": "fuel",
        "name": "GALP",
        "operator": "Galp"
      }
    },
    {
      "type": "node",
      "id": 356288056,
      "lat": 38.9386533,
      "lon": -6.3443629,
      "tags": {
        "amenity": "fuel",
        "name": "Repsol",
        "operator": "Repsol"
      }
    },
    {
      "type": "node",
      "id": 360663680,
      "lat": 39.387618,
      "lon": -6.4356868,
      "tags": {
        "amenity": "fuel",
        "name": "E.S. Río Salor",
        "operator": "Cepsa"
      }
    },
    {
      "type": "node",
      "id": 360664782,
      "lat": 39.1157129,
      "lon": -6.6854389,
      "tags": {
        "amenity": "fuel",
        "name": "E.S. La Roca",
        "operator": "Cepsa"
      }
    },
    {
      "type": "node",
      "id": 367029958,
      "lat": 40.3497398,
      "lon": -8.5874778,
      "tags": {
        "amenity": "fuel",
        "name": "Intermarché"
      }
    },
    {
      "type": "node",
      "id": 385011004,
      "lat": 40.6318767,
      "lon": -8.6412275,
      "tags": {
        "amenity": "fuel",
        "brand": "BP",
        "fuel:HGV_diesel": "yes",
        "fuel:diesel": "yes",
        "fuel:lpg": "yes",
        "fuel:octane_92": "no",
        "fuel:octane_95": "yes",
        "fuel:octane_98": "yes",
        "shop": "kiosk",
        "wheelchair": "yes"
      }
    },
    {
      "type": "node",
      "id": 385710982,
      "lat": 41.2205564,
      "lon": -8.6878322,
      "tags": {
        "amenity": "fuel",
        "name": "Galp",
        "source": "GPS Survey"
      }
    },
    {
      "type": "node",
      "id": 386020924,
      "lat": 40.1730068,
      "lon": -6.6761843,
      "tags": {
        "addr:street": "CARRETERA COMARCAL 526 KM. 59",
        "amenity": "fuel",
        "fuel:diesel": "yes",
        "fuel:diesel_B": "yes",
        "fuel:octane_95": "yes",
        "fuel:octane_98": "yes",
        "is_in:municipality": "PERALES DEL PUERTO",
        "is_in:province": "CÁCERES",
        "name": "IBERDOEX",
        "opening_hours": "Mo-Su 07:00-22:00",
        "operator": "IBERDOEX",
        "source": "mityc 20100806"
      }
    },
    {
      "type": "node",
      "id": 386172649,
      "lat": 41.6351707,
      "lon": -8.1534522,
      "tags": {
        "amenity": "fuel",
        "brand": "BP",
        "name": "Luciana e Vilela",
        "source": "GPS Survey"
      }
    },
    {
      "type": "node",
      "id": 390870555,
      "lat": 37.3186451,
      "lon": -8.7984268,
      "tags": {
        "amenity": "fuel",
        "brand": "Galp"
      }
    },
    {
      "type": "node",
      "id": 406362828,
      "lat": 41.1690632,
      "lon": -8.6065633,
      "tags": {
        "amenity": "fuel",
        "operator": "Total"
      }
    },
    {
      "type": "node",
      "id": 410192840,
      "lat": 41.2186204,
      "lon": -8.6267179,
      "tags": {
        "amenity": "fuel",
        "operator": "BP"
      }
    },
    {
      "type": "node",
      "id": 410763435,
      "lat": 38.2109424,
      "lon": -6.2899371,
      "tags": {
        "amenity": "fuel",
        "operator": "Campsa"
      }
    },
    {
      "type": "node",
      "id": 415408712,
      "lat": 41.172402,
      "lon": -8.5669979,
      "tags": {
        "amenity": "fuel",
        "name": "Jumbo",
        "operator": "Jumbo"
      }
    },
    {
      "type": "node",
      "id": 416391633,
      "lat": 42.1538009,
      "lon": -8.7207432,
      "tags": {
        "amenity": "fuel"
      }
    },
    {
      "type": "node",
      "id": 425942957,
      "lat": 39.6566916,
      "lon": -7.6604719,
      "tags": {
        "amenity": "fuel",
        "operator": "BP"
      }
    },
    {
      "type": "node",
      "id": 425996472,
      "lat": 37.2739812,
      "lon": -6.9910513,
      "tags": {
        "amenity": "fuel"
      }
    },
    {
      "type": "node",
      "id": 430019530,
      "lat": 41.183776,
      "lon": -8.6402333,
      "tags": {
        "amenity": "fuel"
      }
    },
    {
      "type": "node",
      "id": 436533629,
      "lat": 37.2791302,
      "lon": -7.0309949,
      "tags": {
        "amenity": "fuel",
        "name": "Shell",
        "operator": "Shell"
      }
    },
    {
      "type": "node",
      "id": 453574761,
      "lat": 37.1181065,
      "lon": -7.6632375,
      "tags": {
        "amenity": "fuel",
        "kiosk": "yes",
        "operator": "Galp"
      }
    },