<?xml version="1.0" encoding="utf-8" ?><kml xmlns="http://earth.google.com/kml/2.2"><Document timestamp="1500673270"><Folder icon="/favourites/maisgasolina-galp.png"><name>Mais Gasolina - Postos Galp</name><visibility minScale="20" maxScale="50000" >1</visibility><Placemark><name>Galp - F. Ferraz, Lda - Barrô Combustíveis</name><address>Zona Industrial de Barrô 3750-353 Águeda</address><description>Aberto das 07:00 às 21:00</description><Point><coordinates>-8.45102,40.53714</coordinates></Point></Placemark><Placemark><name>Galp - Mendes eamp; Loureiro - Comb. e Lubs., Lda</name><address>IC2/N1 Km 237,100 Mourisca do Vouga 3750-777 Mourisca do Vouga</address><description>Aberto das 06:00 às 22:00</description><Point><coordinates>-8.46486,40.61209</coordinates></Point></Placemark><Placemark><name>Galp - Mendes eamp; Loureiro - Comb. e Lubs., Lda</name><address>  </address><description>Aberto das 06:00 às 22:00</description><Point><coordinates>-8.46523,40.61217</coordinates></Point></Placemark><Placemark><name>Galp - Escusa</name><address>  </address><description>Aberto 24h</description><Point><coordinates>-8.48521,40.75775</coordinates></Point></Placemark><Placemark><name>Galp - Petrobranca</name><address>  </address><description>Aberto 24h</description><Point><coordinates>-8.48414,40.76133</coordinates></Point></Placemark><Placemark><name>Galp Malaposta - Deripe, Lda</name><address>  </address><description>Aberto das 06:00 às 24:00</description><Point><coordinates>-8.45153,40.44767</coordinates></Point></Placemark><Placemark><name>Galp Santa Eulália</name><address>  </address><description>Aberto das 07:00 às 22:00</description><Point><coordinates>-8.27047,40.92796</coordinates></Point></Placemark><Placemark><name>Galp Alvarenga</name><address>  </address><description></description><Point><coordinates>-8.15622,40.96933</coordinates></Point></Placemark><Placemark><name>Galp Chão de Ave</name><address>  </address><description>Aberto das 07:00 às 22:00</description><Point><coordinates>-8.34244,40.89012</coordinates></Point></Placemark><Placemark><name>Galp - Continente de Aveiro</name><address>  </address><description>Aberto 24h</description><Point><coordinates>-8.61538,40.64862</coordinates></Point></Placemark><Placemark><name>Galp A.S. Aveiro E/O</name><address>  </address><description>Aberto 24h</description><Point><coordinates>-8.59185,40.66261</coordinates></Point></Placemark><Placemark><name>Galp A.S. Aveiro O/E</name><address>  </address><description>Aberto 24h</description><Point><coordinates>-8.59165,40.65971</coordinates></Point></Placemark><Placemark><name>Galp - Cacia</name><address>  </address><description>Aberto das 06:00 às 23:00</description><Point><coordinates>-8.61117,40.66473</coordinates></Point></Placemark><Placemark><name>Galp - Sobrado</name><address>Lugar do Bom Retiro 4550-208 Sobrado</address><description>Aberto das 06:00 às 22:00</description><Point><coordinates>-8.26573,41.04479</coordinates></Point></Placemark><Placemark><name>Galp Espinho</name><address>Av. 24, n.º 1314 4500-000 Espinho</address><description>Aberto das 06:30 às 23:30</description><Point><coordinates>-8.63842,41.00197</coordinates></Point></Placemark><Placemark><name>Galp - Av. 25 de Abril</name><address>  </address><description>Aberto das 07:00 às 24:00</description><Point><coordinates>-8.56914,40.75137</coordinates></Point></Placemark><Placemark><name>Galp - Costa de Prata N</name><address>  </address><description>Aberto 24h</description><Point><coordinates>-8.70692,40.62830</coordinates></Point></Placemark><Placemark><name>Galp - Costa de Prata S</name><address>  </address><description>Aberto 24h</description><Point><coordinates>-8.70562,40.62786</coordinates></Point></Placemark><Placemark><name>Galp Mealhada S/N</name><address>  </address><description>Aberto das 06:00 às 23:00</description><Point><coordinates>-8.45057,40.39506</coordinates></Point></Placemark><Placemark><name>Galp Mealhada N/S</name><address>  </address><description>Aberto das 06:00 às 23:00</description><Point><coordinates>-8.45092,40.39489</coordinates></Point></Placemark><Placemark><name>Galp - Luso</name><address>  </address><description>Aberto das 07:00 às 23:00</description><Point><coordinates>-8.38485,40.38827</coordinates></Point></Placemark><Placemark><name>Galp - Auto Viação da Murtosa</name><address>  </address><description>Aberto das 07:00 às 20:00</description><Point><coordinates>-8.64860,40.74987</coordinates></Point></Placemark><Placemark><name>Galp - Ponte da Varela</name><address>  </address><description>Aberto das 07:00 às 21:00</description><Point><coordinates>-8.67779,40.78989</coordinates></Point></Placemark><Placemark><name>Galp - Melo e Pinho Lda</name><address>  </address><description>Aberto das 07:00 às 23:00</description><Point><coordinates>-8.43183,40.91171</coordinates></Point></Placemark><Placemark><name>Galp - Cucujães</name><address>  </address><description>Aberto das 07:00 às 24:00</description><Point><coordinates>-8.48593,40.87217</coordinates></Point></Placemark><Placemark><name>Galp Cucujães - Largo da Igreja</name><address>  </address><description>Aberto das 07:00 às 22:00</description><Point><coordinates>-8.49427,40.86755</coordinates></Point></Placemark><Placemark><name>Galp - Pinheiro da Bemposta B</name><address>  </address><description>Aberto das 06:00 às 21:00</description><Point><coordinates>-8.48036,40.79468</coordinates></Point></Placemark><Placemark><name>Galp - Pinheiro da Bemposta A</name><address>  </address><description>Aberto das 06:00 às 21:00</description><Point><coordinates>-8.48059,40.79558</coordinates></Point></Placemark><Placemark><name>Galp - Combustíveis Bairrada - Sul</name><address>EN 235 (O-E) Km 13,4, Oiã 3770-059 Oiã, Oliveira do Bairro</address><description>Aberto 24h</description><Point><coordinates>-8.54494,40.55100</coordinates></Point></Placemark><Placemark><name>Galp - Combustíveis Bairrada - Norte</name><address>Oliveira do Bairro 3770-059 Oiã</address><description>Aberto 24h</description><Point><coordinates>-8.54432,40.55093</coordinates></Point></Placemark><Placemark><name>Galp - Mamarosa</name><address>  </address><description>Aberto das 07:00 às 21:00</description><Point><coordinates>-8.57921,40.48849</coordinates></Point></Placemark><Placemark><name>Galp Ovar - Av. Sá Carneiro</name><address>Av. Sá Carneiro  Ovar</address><description>Aberto 24h</description><Point><coordinates>-8.61921,40.86529</coordinates></Point></Placemark><Placemark><name>Galp - Valega</name><address>EN 109 Km 38,3 3880-000 Valega - Ovar</address><description>Aberto das 06:00 às 24:00</description><Point><coordinates>-8.58451,40.83553</coordinates></Point></Placemark><Placemark><name>Galp Arrifana</name><address>  </address><description>Aberto das 07:00 às 22:00</description><Point><coordinates>-8.49428,40.91204</coordinates></Point></Placemark><Placemark><name>Galp Meia Légua</name><address>  </address><description>Aberto das 07:00 às 24:00</description><Point><coordinates>-8.50509,40.93457</coordinates></Point></Placemark><Placemark><name>Galp - Espargo</name><address>Zona Industrial Roligo - Espargo 4520-112 Espargo</address><description>Aberto 24h</description><Point><coordinates>-8.56921,40.92360</coordinates></Point></Placemark><Placemark><name>Galp - Fiães</name><address>  </address><description>Aberto das 07:00 às 23:00</description><Point><coordinates>-8.52227,40.98788</coordinates></Point></Placemark><Placemark><name>Galp São João da Madeira</name><address>Av. da Liberdade  São João da Madeira</address><description>Aberto das 07:00 às 24:00</description><Point><coordinates>-8.48257,40.89375</coordinates></Point></Placemark><Placemark><name>Galp Petroroque - S. João da Madeira</name><address>  </address><description>Aberto das 07:00 às 24:00</description><Point><coordinates>-8.47574,40.89197</coordinates></Point></Placemark><Placemark><name>Galp Sever do Vouga</name><address>  </address><description>Aberto das 07:00 às 22:00</description><Point><coordinates>-8.36720,40.73134</coordinates></Point></Placemark><Placemark><name>Galp - Mendes eamp; Loureiro - Sever do Vouga</name><address>  </address><description>Aberto das 07:00 às 23:00</description><Point><coordinates>-8.37521,40.73672</coordinates></Point></Placemark><Placemark><name>Galp - Pessegueiro do Vouga</name><address>  </address><description>Aberto das 07:00 às 21:00</description><Point><coordinates>-8.35728,40.70874</coordinates></Point></Placemark><Placemark><name>Galp - Quintã N/S</name><address>  </address><description>Aberto 24h</description><Point><coordinates>-8.67920,40.51979</coordinates></Point></Placemark><Placemark><name>Galp - Calvão</name><address>Calvão-Vagos 3840-000 Calvão</address><description>Aberto das 07:00 às 21:00</description><Point><coordinates>-8.69565,40.47602</coordinates></Point></Placemark><Placemark><name>Galp - Quintã S/N</name><address>  </address><description>Aberto 24h</description><Point><coordinates>-8.67886,40.51948</coordinates></Point></Placemark><Placemark><name>Galp Vale de Cambra</name><address>  </address><description></description><Point><coordinates>-8.39685,40.84091</coordinates></Point></Placemark><Placemark><name>Galp A.S. Aljustrel (N/S)</name><address>  </address><description>Aberto 24h</description><Point><coordinates>-8.24331,37.92433</coordinates></Point></Placemark><Placemark><name>Galp A.S. Aljustrel (S/N)</name><address>  </address><description>Aberto 24h</description><Point><coordinates>-8.24171,37.92280</coordinates></Point></Placemark><Placemark><name>Galp - Ervidel</name><address>  </address><description>Aberto das 07:00 às 21:00</description><Point><coordinates>-8.08174,37.96508</coordinates></Point></Placemark><Placemark><name>Galp - Antonio M. Guerreiro</name><address>  </address><description></description><Point><coordinates>-8.06109,37.51854</coordinates></Point></Placemark><Placemark><name>Galp Barrancos</name><address>EN 258 7230-000 Barrancos</address><description>Aberto das 07:00 às 21:00</description><Point><coordinates>-6.97988,38.13429</coordinates></Point></Placemark><Placemark><name>Galp - L.A. Cameirinha</name><address>  </address><description>Aberto 24h</description><Point><coordinates>-7.87143,38.02068</coordinates></Point></Placemark><Placemark><name>Galp - Irmãos Lúzias</name><address>  </address><description>Aberto das 06:00 às 23:00</description><Point><coordinates>-7.88289,38.02692</coordinates></Point></Placemark><Placemark><name>Galp - Castro Verde</name><address>  </address><description>Aberto 24h</description><Point><coordinates>-8.08528,37.70112</coordinates></Point></Placemark><Placemark><name>Galp - Cuba</name><address>  </address><description>Aberto das 07:00 às 23:00</description><Point><coordinates>-7.89116,38.16201</coordinates></Point></Placemark><Placemark><name>Galp Mértola</name><address>  </address><description>Aberto das 07:00 às 23:00</description><Point><coordinates>-7.65889,37.64334</coordinates></Point></Placemark><Placemark><name>Galp - Moura</name><address>  </address><description>Aberto 24h</description><Point><coordinates>-7.44714,38.13757</coordinates></Point></Placemark><Placemark><name>Galp São Teotónio</name><address>  </address><description>Aberto das 07:00 às 23:00</description><Point><coordinates>-8.71085,37.51509</coordinates></Point></Placemark><Placemark><name>Galp - Odemira</name><address>  </address><description>Aberto das 08:00 às 22:00</description><Point><coordinates>-8.64541,37.59820</coordinates></Point></Placemark><Placemark><name>Galp - Alagoachos</name><address>  </address><description>Aberto das 06:00 às 23:00</description><Point><coordinates>-8.76711,37.73886</coordinates></Point></Placemark><Placemark><name>Galp A.S. Aldeia dos Palheiros N/S</name><address>  </address><description>Aberto das 06:00 às 24:00</description><Point><coordinates>-8.24627,37.61236</coordinates></Point></Placemark><Placemark><name>Galp - Serpa</name><address>  </address><description>Aberto 24h</description><Point><coordinates>-7.60284,37.95297</coordinates></Point></Placemark><Placemark><name>Galp - Irmãos Barbosa, Lda</name><address>  </address><description>Aberto das 07:00 às 23:00</description><Point><coordinates>-8.36894,41.62732</coordinates></Point></Placemark><Placemark><name>Galp Manhente</name><address>  </address><description>Aberto das 07:00 às 23:00</description><Point><coordinates>-8.56839,41.55497</coordinates></Point></Placemark><Placemark><name>Galp - Garagem Parque de Barcelos</name><address>  </address><description>Aberto das 07:00 às 23:00</description><Point><coordinates>-8.61575,41.53148</coordinates></Point></Placemark><Placemark><name>Galp - Negreiros</name><address>EN 206, 1543 (Km 12,020) - Terra Negra 4775-206 Negreiros</address><description>Aberto das 07:00 às 23:00</description><Point><coordinates>-8.63253,41.41956</coordinates></Point></Placemark><Placemark><name>Galp Monte de Fralães</name><address>EN 204 (R. de São Pedro, 1) 4775-177 Monte de Fralães</address><description>Aberto das 07:00 às 24:00</description><Point><coordinates>-8.56666,41.45743</coordinates></Point></Placemark><Placemark><name>Galp - Gamil</name><address>  </address><description>Aberto das 06:00 às 24:00</description><Point><coordinates>-8.59394,41.52273</coordinates></Point></Placemark><Placemark><name>Galp - Palmeira Recauchutagem Ramoa</name><address>  </address><description>Aberto das 06:00 às 24:00</description><Point><coordinates>-8.42585,41.57716</coordinates></Point></Placemark><Placemark><name>Galp - São Vicente</name><address>  </address><description>Aberto das 07:00 às 23:00</description><Point><coordinates>-8.42033,41.56452</coordinates></Point></Placemark><Placemark><name>Galp - Petroceleirós</name><address>  </address><description>Aberto das 07:00 às 23:00</description><Point><coordinates>-8.45207,41.51211</coordinates></Point></Placemark><Placemark><name>Galp - São Vítor</name><address>  </address><description>Aberto das 07:00 às 24:00</description><Point><coordinates>-8.40931,41.55182</coordinates></Point></Placemark><Placemark><name>Galp Maximinos</name><address>Largo de Madre Deus - EN 103, Km 39,95 4700-228 Maximinos</address><description>Aberto das 07:00 às 23:00</description><Point><coordinates>-8.43568,41.54269</coordinates></Point></Placemark><Placemark><name>Galp Merelim - São Pedro </name><address>EN 201 Km 60,720 - Lugar da Estrada 4700-858 São Pedro de Merelim</address><description>Aberto das 06:00 às 23:00</description><Point><coordinates>-8.45472,41.58405</coordinates></Point></Placemark><Placemark><name>Galp Gandarela</name><address>EN 206 Km 69,2 4890-542 Gandarela</address><description>Aberto das 07:00 às 23:00</description><Point><coordinates>-8.02933,41.45829</coordinates></Point></Placemark><Placemark><name>Galp - Fermil de Basto</name><address>EN 304 Km 126,4 - Fermil de Basto 4890-342 Fermil de Basto</address><description>Aberto das 07:00 às 22:30</description><Point><coordinates>-7.98853,41.42344</coordinates></Point></Placemark><Placemark><name>Galp - Britelo</name><address>  </address><description>Aberto das 06:30 às 23:00</description><Point><coordinates>-7.99294,41.39717</coordinates></Point></Placemark><Placemark><name>Galp Esposende N/S</name><address>EN 13 Km 43,15 - Gandra 4740-475 Esposende</address><description>Aberto das 07:00 às 23:00</description><Point><coordinates>-8.77539,41.52219</coordinates></Point></Placemark><Placemark><name>Galp Fafe - Circular</name><address>  </address><description>Aberto das 07:00 às 23:00</description><Point><coordinates>-8.16685,41.44533</coordinates></Point></Placemark><Placemark><name>Galp Guimarães Sul</name><address>Circular Urbana Guimarães  Guimarães</address><description>Aberto 24h</description><Point><coordinates>-8.30062,41.45125</coordinates></Point></Placemark><Placemark><name>Galp Guimarães - Mesão Frio</name><address>Rua Cruz de Argola, nº 288 4810-255 Mesão Frio</address><description>Aberto 24h</description><Point><coordinates>-8.26977,41.45391</coordinates></Point></Placemark><Placemark><name>Galp Nespereira - Guimarães</name><address>EN 105 Km 40,1 - Pedrinhas 4835-517 Nespereira</address><description>Aberto das 07:00 às 22:00</description><Point><coordinates>-8.32288,41.40181</coordinates></Point></Placemark><Placemark><name>Galp Sande - São Martinho</name><address>Rodinho Sande 4805-537 São Martinho de Sande</address><description>Aberto das 07:00 às 22:00</description><Point><coordinates>-8.36105,41.49262</coordinates></Point></Placemark><Placemark><name>Galp Creixomil - Guimarães S/N</name><address>EN 105, Km 44,183 - Covas 4835-057 Guimarães</address><description>Aberto das 07:00 às 22:00</description><Point><coordinates>-8.30161,41.43270</coordinates></Point></Placemark><Placemark><name>Galp Creixomil - Guimarães N/S</name><address>EN 105, Km 44,183 - Covas 4835-057 Guimarães</address><description>Aberto das 07:00 às 23:00</description><Point><coordinates>-8.30192,41.43271</coordinates></Point></Placemark><Placemark><name>Galp - Guimarães - Estádio</name><address>R. de São Gonçalo, Via Circular (Estádio Guimarães) 4810-528 Guimarães</address><description>Aberto das 07:00 às 22:00</description><Point><coordinates>-8.29938,41.44445</coordinates></Point></Placemark><Placemark><name>Galp Guimarães Norte</name><address>  </address><description>Aberto das 07:00 às 23:00</description><Point><coordinates>-8.30109,41.45157</coordinates></Point></Placemark><Placemark><name>Galp - São Torcato</name><address>  </address><description>Aberto das 07:00 às 22:30</description><Point><coordinates>-8.26897,41.47580</coordinates></Point></Placemark><Placemark><name>Galp - Pevidém</name><address>  Pevidém</address><description>Aberto das 07:00 às 23:00</description><Point><coordinates>-8.35309,41.42342</coordinates></Point></Placemark><Placemark><name>Galp - A.S. Ceide (Famalicão/Guimarães)</name><address>  </address><description>Aberto 24h</description><Point><coordinates>-8.48074,41.38901</coordinates></Point></Placemark><Placemark><name>Galp - A.S. Ceide (Guimarães/Famalicão)</name><address>  </address><description>Aberto 24h</description><Point><coordinates>-8.48037,41.39065</coordinates></Point></Placemark><Placemark><name>Galp - Irmãos Ferreiras e Silva Lda</name><address>  </address><description>Aberto das 06:00 às 24:00</description><Point><coordinates>-8.51613,41.40408</coordinates></Point></Placemark><Placemark><name>Galp - Parque Industrial do Lago</name><address>Parque Comercial Lago Discount, Lugar do Xisto 4760-727 Ribeirão</address><description>Aberto 24h</description><Point><coordinates>-8.54685,41.36600</coordinates></Point></Placemark><Placemark><name>Galp - Vizela</name><address>Rua das Teixugueiras 4815-474 Vizela</address><description>Aberto das 07:00 às 23:00</description><Point><coordinates>-8.31379,41.37988</coordinates></Point></Placemark><Placemark><name>Galp Cantarias</name><address>Alto das Cantarias 5300-851 Bragança</address><description>Aberto das 07:00 às 23:00</description><Point><coordinates>-6.77454,41.78667</coordinates></Point></Placemark><Placemark><name>Galp Bragança</name><address>Rua Alexandre Herculano 5300-075 Bragança</address><description>Aberto 24h</description><Point><coordinates>-6.75940,41.80267</coordinates></Point></Placemark><Placemark><name>Galp Macedo de Cavaleiros</name><address>Av. Dr. Urze Pires 5340-263 Macedo de Cavaleiros</address><description>Aberto das 06:00 às 24:00</description><Point><coordinates>-6.96248,41.53373</coordinates></Point></Placemark><Placemark><name>Galp Sendim</name><address>E.N.221 Km 19,1 5225-103 Sendim</address><description>Aberto das 07:00 às 23:00</description><Point><coordinates>-6.42484,41.39218</coordinates></Point></Placemark><Placemark><name>Galp Mirandela</name><address>Rua Eng. José Machado Vaz, s/n - Golfeiras 5370-440 Mirandela</address><description>Aberto das 07:00 às 24:00</description><Point><coordinates>-7.18798,41.48597</coordinates></Point></Placemark><Placemark><name>Galp Mirandela - Av Comunidades Europeias</name><address>Avª Comunidades Europeias, 259 5370-205 Mirandela</address><description>Aberto das 07:00 às 24:00</description><Point><coordinates>-7.17693,41.49172</coordinates></Point></Placemark><Placemark><name>Galp - Mogadouro</name><address>  </address><description>Aberto das 07:00 às 24:00</description><Point><coordinates>-6.71039,41.34263</coordinates></Point></Placemark><Placemark><name>Galp - Carvalhal</name><address>  </address><description>Aberto das 07:00 às 22:00</description><Point><coordinates>-6.98249,41.18290</coordinates></Point></Placemark><Placemark><name>Galp Mina</name><address>EN 18 (Rua da Mina) Km 104,7  6000-170 Castelo Branco</address><description>Aberto das 07:00 às 24:00</description><Point><coordinates>-7.49686,39.83192</coordinates></Point></Placemark><Placemark><name>Galp - Castelo Branco</name><address>EN 233 Km 108,2 (Av. de Espanha) 6000-067 Castelo Branco</address><description>Aberto das 07:00 às 24:00</description><Point><coordinates>-7.48076,39.83187</coordinates></Point></Placemark><Placemark><name>Galp Castelo Branco - Estrada de Montalvão</name><address>Av. Infante de Sagres  6000-082 Castelo Branco</address><description>Aberto 24h</description><Point><coordinates>-7.51110,39.80828</coordinates></Point></Placemark><Placemark><name>Galp - Montalvão</name><address>  </address><description>Aberto 24h</description><Point><coordinates>-7.50138,39.81659</coordinates></Point></Placemark><Placemark><name>Galp - Unhais da Serra</name><address>Av. 1º de Maio  6215-517 Unhais da Serra</address><description>Aberto das 07:30 às 20:00</description><Point><coordinates>-7.62079,40.25099</coordinates></Point></Placemark><Placemark><name>Galp - Faculdade Medicina</name><address>  </address><description>Aberto 24h</description><Point><coordinates>-7.49128,40.26484</coordinates></Point></Placemark><Placemark><name>Galp Alpedrinha</name><address>EN 18 6230-222 Alpedrinha</address><description>Aberto das 07:00 às 21:00</description><Point><coordinates>-7.46728,40.09680</coordinates></Point></Placemark><Placemark><name>Galp Fundão</name><address>  </address><description>Aberto das 08:00 às 24:00</description><Point><coordinates>-7.49785,40.14381</coordinates></Point></Placemark><Placemark><name>Galp Fundão - Zona Industrial </name><address>Zona Industrial Lts. 72, 73 e 74 6230-483 Fundão</address><description>Aberto das 07:00 às 21:00</description><Point><coordinates>-7.49317,40.17331</coordinates></Point></Placemark><Placemark><name>Galp - Oleiros</name><address>EN 238 6160-301 Oleiros</address><description>Aberto das 07:00 às 23:00</description><Point><coordinates>-7.90809,39.91786</coordinates></Point></Placemark><Placemark><name>Galp - Ameixoeira</name><address>  </address><description>Aberto das 07:00 às 23:00</description><Point><coordinates>-7.82808,39.96009</coordinates></Point></Placemark><Placemark><name>Galp - Penamacor</name><address>Rua 25 de Abril 6090-000 Penamacor</address><description>Aberto das 07:00 às 23:00</description><Point><coordinates>-7.18629,40.16277</coordinates></Point></Placemark><Placemark><name>Galp - Cernache do Bonjardim</name><address>Rua dos Pinheiros, n.º1 6100-266 Cernache do Bonjardim</address><description>Aberto das 07:00 às 23:00</description><Point><coordinates>-8.19379,39.80985</coordinates></Point></Placemark><Placemark><name>Galp Cernache do Bonjardim</name><address>EN 238 Km 33,45 6100-000 Cernache do Bonjardim</address><description>Aberto das 07:00 às 24:00</description><Point><coordinates>-8.17968,39.81952</coordinates></Point></Placemark><Placemark><name>Galp Pedrogão Pequeno</name><address>EN 2 Km 327,58 6100-000 Pedrogão Pequeno</address><description>Aberto das 07:00 às 22:00</description><Point><coordinates>-8.13117,39.90389</coordinates></Point></Placemark><Placemark><name>Galp Sertã</name><address>EN 238 - Lugar de Santo Amaro 6100-000 Sertã</address><description>Aberto das 07:00 às 23:00</description><Point><coordinates>-8.10138,39.80363</coordinates></Point></Placemark><Placemark><name>Galp - Vila De Rei</name><address>  </address><description>Aberto das 07:00 às 22:00</description><Point><coordinates>-8.14267,39.67882</coordinates></Point></Placemark><Placemark><name>Galp - A.S. Vila Velha Ródão (S/N)</name><address>  </address><description>Aberto 24h</description><Point><coordinates>-7.78227,39.57273</coordinates></Point></Placemark><Placemark><name>Galp A.S. Vila Velha Rodão (N/S)</name><address>  </address><description>Aberto 24h</description><Point><coordinates>-7.78267,39.57404</coordinates></Point></Placemark><Placemark><name>Galp Sarnadas de Rodão</name><address>EN 3 Km 196,700 - Sarnadas 6030-116 Sarnadas de Rodão</address><description>Aberto das 06:00 às 22:30</description><Point><coordinates>-7.61647,39.75249</coordinates></Point></Placemark><Placemark><name>Galp Catraia de Mouronho Norte</name><address>  </address><description>Aberto das 07:00 às 23:00</description><Point><coordinates>-8.05769,40.28898</coordinates></Point></Placemark><Placemark><name>Galp Catraia de Mouronho Sul</name><address>  </address><description>Aberto das 07:00 às 23:00</description><Point><coordinates>-8.05773,40.28870</coordinates></Point></Placemark><Placemark><name>Galp Cantanhede</name><address>  </address><description>Aberto das 07:00 às 23:00</description><Point><coordinates>-8.57944,40.35052</coordinates></Point></Placemark><Placemark><name>Galp Tocha S/N</name><address>  </address><description>Aberto das 06:00 às 24:00</description><Point><coordinates>-8.75414,40.31166</coordinates></Point></Placemark><Placemark><name>Galp Tocha N/S</name><address>  </address><description>Aberto das 06:00 às 24:00</description><Point><coordinates>-8.75441,40.31181</coordinates></Point></Placemark><Placemark><name>Galp Fórum Coimbra</name><address>Quinta do Vale Gemil- Almegue 3044-520 Coimbra</address><description>Aberto 24h</description><Point><coordinates>-8.44491,40.20993</coordinates></Point></Placemark><Placemark><name>Galp Coimbra Shopping N</name><address>  </address><description></description><Point><coordinates>-8.40896,40.19538</coordinates></Point></Placemark><Placemark><name>Galp - Coimbra IC2 S/N</name><address>  </address><description></description><Point><coordinates>-8.45580,40.16783</coordinates></Point></Placemark><Placemark><name>Galp - Coimbra IC2 N/S</name><address>  </address><description>Aberto das 06:00 às 22:00</description><Point><coordinates>-8.45638,40.16792</coordinates></Point></Placemark><Placemark><name>Galp Adémia</name><address>  </address><description>Aberto 24h</description><Point><coordinates>-8.44203,40.25102</coordinates></Point></Placemark><Placemark><name>Galp S. Martinho Bispo</name><address>  </address><description></description><Point><coordinates>-8.46108,40.19881</coordinates></Point></Placemark><Placemark><name>Galp Coimbra Shopping S</name><address>  </address><description>Aberto 24h</description><Point><coordinates>-8.40867,40.19502</coordinates></Point></Placemark><Placemark><name>Galp - Rotunda Fucoli</name><address>  </address><description>Aberto 24h</description><Point><coordinates>-8.43121,40.22186</coordinates></Point></Placemark><Placemark><name>Galp - Santa Luzia Este</name><address>EN 1 KM 201.1 3050-106 Santa Luzia</address><description>Aberto das 07:00 às 23:00</description><Point><coordinates>-8.44874,40.30734</coordinates></Point></Placemark><Placemark><name>Galp - Santa Luzia Oeste</name><address>  </address><description>Aberto das 05:00 às 02:00</description><Point><coordinates>-8.44913,40.30769</coordinates></Point></Placemark><Placemark><name>Galp - Santa Cruz</name><address>  </address><description>Aberto das 07:00 às 23:00</description><Point><coordinates>-8.43856,40.22860</coordinates></Point></Placemark><Placemark><name>Galp - Brenha</name><address>  </address><description></description><Point><coordinates>-8.82874,40.17946</coordinates></Point></Placemark><Placemark><name>Galp Robala - Figueira da Foz </name><address>  </address><description>Aberto das 07:00 às 22:00</description><Point><coordinates>-8.84346,40.15591</coordinates></Point></Placemark><Placemark><name>Galp - Lousã</name><address>  </address><description>Aberto das 07:00 às 23:00</description><Point><coordinates>-8.24863,40.11935</coordinates></Point></Placemark><Placemark><name>Galp - Viúva Borralho e Filhos, Lda.</name><address>  </address><description></description><Point><coordinates>-8.73657,40.42647</coordinates></Point></Placemark><Placemark><name>Galp - Praia de Mira</name><address>  </address><description>Aberto das 08:00 às 24:00</description><Point><coordinates>-8.80012,40.45561</coordinates></Point></Placemark><Placemark><name>Galp - Carromeu N/S</name><address>  </address><description>Aberto 24h</description><Point><coordinates>-8.73517,40.40658</coordinates></Point></Placemark><Placemark><name>Galp - Carromeu S/N</name><address>  </address><description>Aberto 24h</description><Point><coordinates>-8.73477,40.40652</coordinates></Point></Placemark><Placemark><name>Galp Carapinheira - Lubricentro Dois</name><address>Alhastro (Lg.) 3140-079 Carapinheira</address><description>Aberto das 07:00 às 23:00</description><Point><coordinates>-8.64888,40.20402</coordinates></Point></Placemark><Placemark><name>Galp - Ervedal da Beira</name><address>Avenida Nova, 24  Ervedal da Beira</address><description>Aberto das 07:00 às 23:00</description><Point><coordinates>-7.88574,40.42338</coordinates></Point></Placemark><Placemark><name>Galp Chamusca da Beira</name><address>  </address><description></description><Point><coordinates>-7.81735,40.35702</coordinates></Point></Placemark><Placemark><name>Galp Venda de Galizes</name><address>Estr. EN17  Venda de Galizes</address><description>Aberto das 06:00 às 24:00</description><Point><coordinates>-7.89975,40.31535</coordinates></Point></Placemark><Placemark><name>Galp - Santa Eufémia</name><address>  </address><description>Aberto das 07:00 às 23:00</description><Point><coordinates>-8.39410,40.02792</coordinates></Point></Placemark><Placemark><name>Galp - Auto Mecanico Tabuense, Lda</name><address>  </address><description>Aberto das 07:00 às 23:00</description><Point><coordinates>-8.02934,40.35996</coordinates></Point></Placemark><Placemark><name>Galp - Silvagás, Lda</name><address>  </address><description></description><Point><coordinates>-8.24814,40.20553</coordinates></Point></Placemark><Placemark><name>Galp Estremoz - Riachos (O/E)</name><address>EN 4 Km 141,35 - Riachos 7100-000 Estremoz</address><description>Aberto das 06:00 às 24:00</description><Point><coordinates>-7.61450,38.84478</coordinates></Point></Placemark><Placemark><name>Galp Estremoz - Riachos (E/O)</name><address>EN 4 Km 141,35 - Riachos 7100-000 Estremoz</address><description>Aberto das 06:00 às 24:00</description><Point><coordinates>-7.61455,38.84518</coordinates></Point></Placemark><Placemark><name>Galp - A.S. Portas do Raimundo</name><address>  </address><description>Aberto 24h</description><Point><coordinates>-7.91522,38.56771</coordinates></Point></Placemark><Placemark><name>Galp - Variante à Zona Industrial (E/O)</name><address>Variante à Zona Industrial - Sentido Lisboa 7005-206 Évora</address><description>Aberto das 07:00 às 24:00</description><Point><coordinates>-7.91755,38.55427</coordinates></Point></Placemark><Placemark><name>Galp - Variante à Zona Industrial (O/E)</name><address>Variante à Zona Industrial - Sentido Beja 7005-206 Évora</address><description>Aberto das 06:00 às 23:00</description><Point><coordinates>-7.91805,38.55391</coordinates></Point></Placemark><Placemark><name>Galp - Combev (Évora/Lisboa)</name><address>  </address><description>Aberto das 07:00 às 21:00</description><Point><coordinates>-7.98251,38.57501</coordinates></Point></Placemark><Placemark><name>Galp - I. Dom Henrique</name><address>Praça Infante Dom Henrique 7005-169 Évora</address><description>Aberto das 06:00 às 22:00</description><Point><coordinates>-7.89760,38.56781</coordinates></Point></Placemark><Placemark><name>Galp - São Manços</name><address>  </address><description>Aberto das 07:00 às 22:00</description><Point><coordinates>-7.74901,38.45811</coordinates></Point></Placemark><Placemark><name>Galp A.S. Montemor S</name><address>A6 - Km 55 (Lanço Marateca-Caia) 7050-349 Montemor</address><description>Aberto 24h</description><Point><coordinates>-8.08235,38.61803</coordinates></Point></Placemark><Placemark><name>Galp A.S. Montemor N</name><address>A6 Km 55 (Lanço Marateca-Caia) 7050-349 Montemor</address><description>Aberto 24h</description><Point><coordinates>-8.07774,38.61761</coordinates></Point></Placemark><Placemark><name>Galp - José M S Dentinho</name><address>EN 4 (Largo Calouste Gulbenkian) 7050-192 Montemor-o-Novo</address><description>Aberto das 07:00 às 23:00</description><Point><coordinates>-8.21549,38.64895</coordinates></Point></Placemark><Placemark><name>Galp - Silveiras (Sul)</name><address>Estrada Nacional 4 7050-677 Silveiras - Montemor-o-Novo</address><description>Aberto das 07:00 às 21:00</description><Point><coordinates>-8.34388,38.65048</coordinates></Point></Placemark><Placemark><name>Galp - Silveiras (Norte)</name><address>Estrada Nacional 4 7050-677 Silveiras - Montemor-o-Novo</address><description>Aberto das 07:00 às 21:00</description><Point><coordinates>-8.34390,38.65070</coordinates></Point></Placemark><Placemark><name>Galp - Sousa eamp; Marquês, Lda</name><address>EN 4 (Av. Gago Coutinho, 25) 7050-097 Montemor-o-Novo</address><description>Aberto 24h</description><Point><coordinates>-8.21673,38.64962</coordinates></Point></Placemark><Placemark><name>Galp - João Manuel, Filha e Sobrinho, Lda</name><address>E.N.2 Km 478 493 7490-000 Mora</address><description>Aberto das 07:00 às 21:00</description><Point><coordinates>-8.15763,38.94341</coordinates></Point></Placemark><Placemark><name>Galp Mourão - Zona Industrial</name><address>Zona Industrial do Cemitério 7240-000 Mourão</address><description>Aberto das 06:00 às 23:00</description><Point><coordinates>-7.33445,38.38167</coordinates></Point></Placemark><Placemark><name>Galp - Redondo</name><address>  </address><description>Aberto das 07:00 às 21:00</description><Point><coordinates>-7.54904,38.64496</coordinates></Point></Placemark><Placemark><name>Galp - Petroreguengos, Lda</name><address>  </address><description>Aberto das 07:00 às 22:00</description><Point><coordinates>-7.54211,38.42596</coordinates></Point></Placemark><Placemark><name>Galp - Marques e Filhos, Lda</name><address>  </address><description>Aberto das 06:00 às 23:00</description><Point><coordinates>-7.54282,38.42582</coordinates></Point></Placemark><Placemark><name>Galp Bombel B</name><address>  </address><description>Aberto das 06:00 às 22:00</description><Point><coordinates>-8.51140,38.68497</coordinates></Point></Placemark><Placemark><name>Galp - Vila Viçosa</name><address>  </address><description>Aberto das 07:00 às 20:00</description><Point><coordinates>-7.42268,38.77655</coordinates></Point></Placemark><Placemark><name>Galp - C.C.A.</name><address>EN 526 8200-315 Vale de Azinheira, Albufeira</address><description>Aberto das 07:00 às 23:00</description><Point><coordinates>-8.19224,37.10422</coordinates></Point></Placemark><Placemark><name>Galp Torre da Mosqueira-Est.Montechoro</name><address>  </address><description>Aberto das 07:00 às 23:00</description><Point><coordinates>-8.22708,37.11878</coordinates></Point></Placemark><Placemark><name>Galp - Pederne</name><address>  </address><description>Aberto das 08:00 às 21:00</description><Point><coordinates>-8.20988,37.17675</coordinates></Point></Placemark><Placemark><name>Galp - Serafim Rosa e Filhos, Lda</name><address>  </address><description>Aberto das 07:00 às 23:00</description><Point><coordinates>-8.19354,37.10380</coordinates></Point></Placemark><Placemark><name>Galp - B.V. Aljezur</name><address>EN 120 (Quartel dos Bombeiros) 8670-840 Aljezur</address><description>Aberto das 07:00 às 23:00</description><Point><coordinates>-8.79835,37.31859</coordinates></Point></Placemark><Placemark><name>Galp - Brimotor, Lda (Olhão/Faro)</name><address>EN 125 Km 107,6, sentido Olhão->Faro 8005-528 Rio Seco, Faro</address><description>Aberto das 07:00 às 24:00</description><Point><coordinates>-7.90612,37.02861</coordinates></Point></Placemark><Placemark><name>Galp - Brimotor, Lda (Faro/Olhão)</name><address>  </address><description>Aberto 24h</description><Point><coordinates>-7.90607,37.02817</coordinates></Point></Placemark><Placemark><name>Galp - Estoi</name><address>  </address><description>Aberto das 06:00 às 24:00</description><Point><coordinates>-7.90605,37.09745</coordinates></Point></Placemark><Placemark><name>Galp Lagoa</name><address>  </address><description>Aberto 24h</description><Point><coordinates>-8.45322,37.13282</coordinates></Point></Placemark><Placemark><name>Galp A.S. Lagos (Lagos/Faro)</name><address>A22 - Km 4,350 -Via do Infant 8600-000 Lagos</address><description>Aberto 24h</description><Point><coordinates>-8.70289,37.14841</coordinates></Point></Placemark><Placemark><name>Galp A.S. Lagos (Faro/Lagos)</name><address>A22 - Km 4,350 -Via do Infant 8600-000 Lagos</address><description>Aberto 24h</description><Point><coordinates>-8.70409,37.14897</coordinates></Point></Placemark><Placemark><name>Galp Lagos I</name><address>E.N.120-Km.174 8600-000 Lagos</address><description>Aberto 24h</description><Point><coordinates>-8.67941,37.11122</coordinates></Point></Placemark><Placemark><name>Galp Lagos II</name><address>E.N.120-Km.174 8600-324 Lagos</address><description>Aberto 24h</description><Point><coordinates>-8.67970,37.11087</coordinates></Point></Placemark><Placemark><name>Galp A.S. Loulé (Loulé/Faro)</name><address>  </address><description>Aberto 24h</description><Point><coordinates>-8.11110,37.13735</coordinates></Point></Placemark><Placemark><name>Galp A.S. Loulé (Faro/Loulé)</name><address>  </address><description>Aberto 24h</description><Point><coordinates>-8.11088,37.13618</coordinates></Point></Placemark><Placemark><name>Galp A.S. Loulé A</name><address>  </address><description>Aberto 24h</description><Point><coordinates>-8.02086,37.13411</coordinates></Point></Placemark><Placemark><name>Galp - Almancil</name><address>Estrada da Fonte Santa 8135-107 Almancil</address><description>Aberto das 07:00 às 01:00</description><Point><coordinates>-8.04264,37.08524</coordinates></Point></Placemark><Placemark><name>Galp A.S. Loulé B</name><address>  </address><description>Aberto 24h</description><Point><coordinates>-8.02117,37.13507</coordinates></Point></Placemark><Placemark><name>Galp - Vilamoura Este</name><address>  </address><description>Aberto das 07:00 às 24:00</description><Point><coordinates>-8.11716,37.08280</coordinates></Point></Placemark><Placemark><name>Galp - Monchique</name><address>Rua Pé da Cruz 8550-328 Monchique</address><description>Aberto das 07:00 às 22:00</description><Point><coordinates>-8.55644,37.31075</coordinates></Point></Placemark><Placemark><name>Galp Olhão</name><address>  </address><description>Aberto das 07:00 às 23:00</description><Point><coordinates>-7.84716,37.03151</coordinates></Point></Placemark><Placemark><name>Galp - Moncarapacho</name><address>  </address><description>Aberto das 07:00 às 22:00</description><Point><coordinates>-7.79040,37.08316</coordinates></Point></Placemark><Placemark><name>Galp - Cabeço do Mocho </name><address>Rua das Papoilas - Cabeço do Mocho  8500-313 Portimão</address><description>Aberto das 08:30 às 23:00</description><Point><coordinates>-8.55193,37.15128</coordinates></Point></Placemark><Placemark><name>Galp Portimão</name><address>Portimão - V6 8500-000 Portimão</address><description>Aberto das 07:00 às 24:00</description><Point><coordinates>-8.54563,37.13038</coordinates></Point></Placemark><Placemark><name>Galp - São Brás de Alportel</name><address>  </address><description>Aberto 24h</description><Point><coordinates>-7.89234,37.15663</coordinates></Point></Placemark><Placemark><name>Galp Enxerim</name><address>  </address><description>Aberto das 07:00 às 24:00</description><Point><coordinates>-8.43018,37.19666</coordinates></Point></Placemark><Placemark><name>Galp A.S. São Marcos da Serra</name><address>  </address><description>Aberto 24h</description><Point><coordinates>-8.35854,37.34604</coordinates></Point></Placemark><Placemark><name>Galp Pêra Norte</name><address>  </address><description>Aberto das 07:00 às 24:00</description><Point><coordinates>-8.33536,37.12424</coordinates></Point></Placemark><Placemark><name>Galp Rua D. João II</name><address>  </address><description>Aberto das 08:00 às 22:00</description><Point><coordinates>-8.36364,37.10246</coordinates></Point></Placemark><Placemark><name>Galp Silves</name><address>  </address><description>Aberto das 07:00 às 23:00</description><Point><coordinates>-8.44413,37.18601</coordinates></Point></Placemark><Placemark><name>Galp São Bartolomeu de Messines</name><address> 8375-000 São Bartolomeu de Messines</address><description>Aberto das 07:00 às 22:00</description><Point><coordinates>-8.28224,37.25580</coordinates></Point></Placemark><Placemark><name>Galp Pêra Sul</name><address>  </address><description>Aberto das 08:00 às 22:00</description><Point><coordinates>-8.33487,37.12391</coordinates></Point></Placemark><Placemark><name>Galp - Luz de Tavira</name><address>  </address><description>Aberto das 06:00 às 23:00</description><Point><coordinates>-7.70834,37.08984</coordinates></Point></Placemark><Placemark><name>Galp A.S. São Pedro B</name><address>  </address><description>Aberto das 07:00 às 22:00</description><Point><coordinates>-7.66306,37.11787</coordinates></Point></Placemark><Placemark><name>Galp A.S. São Pedro A</name><address>  </address><description>Aberto 24h</description><Point><coordinates>-7.66325,37.11808</coordinates></Point></Placemark><Placemark><name>Galp - Tavira</name><address>  </address><description>Aberto das 07:00 às 24:00</description><Point><coordinates>-7.64700,37.12652</coordinates></Point></Placemark><Placemark><name>Galp - Miguel Salas, Lda</name><address>  </address><description>Aberto das 07:00 às 23:00</description><Point><coordinates>-7.42093,37.19355</coordinates></Point></Placemark><Placemark><name>Galp Almeida - B. da Guerreira</name><address>EN 332 - Bairro da Guerreira 6350-210 Almeida</address><description>Aberto das 07:00 às 23:00</description><Point><coordinates>-6.90297,40.72079</coordinates></Point></Placemark><Placemark><name>Galp A.S. Celorico da Beira S</name><address>  </address><description>Aberto 24h</description><Point><coordinates>-7.35659,40.62993</coordinates></Point></Placemark><Placemark><name>Galp A.S. Celorico da Beira N</name><address>  </address><description>Aberto 24h</description><Point><coordinates>-7.35752,40.63016</coordinates></Point></Placemark><Placemark><name>Galp - Serafim Batista Duarte Lda</name><address>  </address><description>Aberto das 06:00 às 23:30</description><Point><coordinates>-7.39055,40.63729</coordinates></Point></Placemark><Placemark><name>Galp Fornos de Algodres</name><address>EN 16 Km 133,1 6370-000 Fornos de Algodres</address><description>Aberto das 07:00 às 23:00</description><Point><coordinates>-7.54403,40.61635</coordinates></Point></Placemark><Placemark><name>Galp - Gouveia-Auto, Lda</name><address>Lugar de Barreiros 6290-320 Gouveia</address><description>Aberto das 07:00 às 23:00</description><Point><coordinates>-7.60306,40.49746</coordinates></Point></Placemark><Placemark><name>Galp A.S. Guarda A23 (N/S)</name><address>  </address><description>Aberto 24h</description><Point><coordinates>-7.21619,40.54477</coordinates></Point></Placemark><Placemark><name>Galp A.S. Guarda A23 (S/N)</name><address>  </address><description>Aberto 24h</description><Point><coordinates>-7.21542,40.54334</coordinates></Point></Placemark><Placemark><name>Galp Guarda - Rainha D. Amélia</name><address>Av. Rainha Dona Amélia 6300-749 Guarda</address><description>Aberto das 07:00 às 24:00</description><Point><coordinates>-7.27608,40.52817</coordinates></Point></Placemark><Placemark><name>Galp Guarda - Póvoa do Mileu</name><address>Av. Cidade de Bejar - Póvoa do Mileu 6300-534 Guarda</address><description>Aberto 24h</description><Point><coordinates>-7.25823,40.54321</coordinates></Point></Placemark><Placemark><name>Galp Guarda-gare</name><address>EN 16 (Av. de São Miguel) Km 182,553 6300-864 Guarda</address><description>Aberto das 07:00 às 23:00</description><Point><coordinates>-7.23716,40.55691</coordinates></Point></Placemark><Placemark><name>Galp Meda</name><address>Av. Gago Coutinho nº 1910 6430-000 Meda</address><description>Aberto das 07:00 às 22:00</description><Point><coordinates>-7.26128,40.96519</coordinates></Point></Placemark><Placemark><name>Galp Sabugal</name><address>  </address><description></description><Point><coordinates>-7.09530,40.35299</coordinates></Point></Placemark><Placemark><name>Galp - Chaves e Irmão Lda</name><address>  </address><description></description><Point><coordinates>-7.71871,40.43133</coordinates></Point></Placemark><Placemark><name>Galp Pinhanços - Seia</name><address>EN 17 Km 98,4 6270-141 Pinhanços</address><description>Aberto das 05:00 às 01:30</description><Point><coordinates>-7.68880,40.46243</coordinates></Point></Placemark><Placemark><name>Galp Tourais - Seia</name><address>EN 231 6270-581 Tourais, Seia</address><description>Aberto das 06:00 às 24:00</description><Point><coordinates>-7.75380,40.46375</coordinates></Point></Placemark><Placemark><name>Galp Trancoso</name><address>  </address><description>Aberto das 07:00 às 23:00</description><Point><coordinates>-7.35136,40.77609</coordinates></Point></Placemark><Placemark><name>Galp - Vila Nova de Foz Côa</name><address>  </address><description>Aberto das 07:00 às 22:00</description><Point><coordinates>-7.14397,41.08052</coordinates></Point></Placemark><Placemark><name>Galp Cedovim</name><address>  </address><description>Aberto das 07:00 às 22:00</description><Point><coordinates>-7.29444,41.06413</coordinates></Point></Placemark><Placemark><name>Galp Modelo Alcobaça</name><address>Av. General Humberto Delgado  Alcobaça</address><description>Aberto das 07:00 às 24:00</description><Point><coordinates>-8.97820,39.55951</coordinates></Point></Placemark><Placemark><name>Galp Alfeizerão - Soc. Aut. Cruz de Cristo</name><address>  </address><description></description><Point><coordinates>-9.09519,39.49829</coordinates></Point></Placemark><Placemark><name>Galp Benedita - António Lourenço Vinagre Lda</name><address>R Rei Memória 73, Benedita 2475-149 Benedita</address><description>Aberto das 07:00 às 23:00</description><Point><coordinates>-8.98000,39.42813</coordinates></Point></Placemark><Placemark><name>Galp - Casais de Santa Teresa S/N</name><address>  </address><description>Aberto das 06:00 às 24:00</description><Point><coordinates>-8.87841,39.57007</coordinates></Point></Placemark><Placemark><name>Galp - Casais de Santa Teresa N/S</name><address>  </address><description>Aberto 24h</description><Point><coordinates>-8.87835,39.57070</coordinates></Point></Placemark><Placemark><name>Galp - Pataias</name><address>Rua Santa Isabel 2445-320 Pataias</address><description>Aberto das 07:00 às 23:00</description><Point><coordinates>-8.99397,39.67078</coordinates></Point></Placemark><Placemark><name>Galp - Combustíveis dos Carris</name><address>  </address><description>Aberto das 07:00 às 23:00</description><Point><coordinates>-8.95319,39.49978</coordinates></Point></Placemark><Placemark><name>Galp - Vendas de Maria - Alvaiázere</name><address>  </address><description>Aberto 24h</description><Point><coordinates>-8.35159,39.87452</coordinates></Point></Placemark><Placemark><name>Galp Batalha</name><address>  </address><description></description><Point><coordinates>-8.82217,39.65679</coordinates></Point></Placemark><Placemark><name>Galp Bombarral</name><address>  </address><description>Aberto das 06:00 às 24:00</description><Point><coordinates>-9.15811,39.26171</coordinates></Point></Placemark><Placemark><name>Galp - Auto Julio</name><address>Rua Bernardino Simões, N.º3 Apartado 247 S.Cristovão 2504-138 Caldas da Rainha</address><description>Aberto das 07:00 às 23:00</description><Point><coordinates>-9.13070,39.39059</coordinates></Point></Placemark><Placemark><name>Galp - Petrocaldas</name><address>  </address><description>Aberto das 06:00 às 01:00</description><Point><coordinates>-9.14347,39.41097</coordinates></Point></Placemark><Placemark><name>Galp - Maria Manuela P. Ribeiro, Lda</name><address>  </address><description>Aberto 24h</description><Point><coordinates>-9.13342,39.41623</coordinates></Point></Placemark><Placemark><name>Galp Lugar da Charneca - Petrocaldas</name><address>  </address><description>Aberto das 07:00 às 23:00</description><Point><coordinates>-9.16625,39.41426</coordinates></Point></Placemark><Placemark><name>Galp - Castanheira de Pêra</name><address>  </address><description>Aberto das 08:00 às 21:00</description><Point><coordinates>-8.21153,40.00612</coordinates></Point></Placemark><Placemark><name>Galp A.S. Porto Moniz</name><address>Rua Dr. João Soares nº 299 2400-448 Leiria</address><description>Aberto das 07:00 às 24:00</description><Point><coordinates>-8.81528,39.73901</coordinates></Point></Placemark><Placemark><name>Galp A.S. Leiria</name><address>Av. Nossa Senhora Fátima 2410-140 Leiria</address><description>Aberto 24h</description><Point><coordinates>-8.79905,39.73559</coordinates></Point></Placemark><Placemark><name>Galp A.S. Alto do Vieiro</name><address>EN 1 2400-823 Parceiros - Alto de Vieiro</address><description>Aberto das 09:00 às 23:00</description><Point><coordinates>-8.82420,39.73090</coordinates></Point></Placemark><Placemark><name>Galp - Monte Redondo</name><address>EN109, Edif.63 2425-618 Monte Redondo</address><description>Aberto 24h</description><Point><coordinates>-8.83795,39.88033</coordinates></Point></Placemark><Placemark><name>Galp - Azoia S/N</name><address>EN 1 Km 117,1 2400-827 Azóia</address><description>Aberto 24h</description><Point><coordinates>-8.82880,39.69991</coordinates></Point></Placemark><Placemark><name>Galp - Maceira</name><address>  </address><description></description><Point><coordinates>-8.90008,39.68440</coordinates></Point></Placemark><Placemark><name>Galp - VMF Petroleos</name><address>Rua Nª Sraª das Dores, nº146-1c 2410-656 Boa Vista</address><description>Aberto das 07:00 às 23:00</description><Point><coordinates>-8.75123,39.78251</coordinates></Point></Placemark><Placemark><name>Galp - Azoia N/S</name><address>EN 1 Km 117,1 2400-827 Azóia</address><description>Aberto 24h</description><Point><coordinates>-8.82896,39.69992</coordinates></Point></Placemark><Placemark><name>Galp - Pousos</name><address>EN113 - Zona Industrial de Pousos 2410-211 Leiria - Pousos</address><description>Aberto das 07:00 às 23:00</description><Point><coordinates>-8.76492,39.73515</coordinates></Point></Placemark><Placemark><name>Galp - Vieira de Leiria</name><address>  </address><description>Aberto das 07:00 às 23:00</description><Point><coordinates>-8.93451,39.86910</coordinates></Point></Placemark><Placemark><name>Galp - Monte Real</name><address>Rua da Base Aérea nº5  2425-022 Monte Real</address><description>Aberto das 07:00 às 23:00</description><Point><coordinates>-8.87204,39.84790</coordinates></Point></Placemark><Placemark><name>Galp - Gasogás</name><address>Rua da Alemanha, lote 15 - Zona industrial Casal da Lebre 2431-957 Marinha Grande</address><description>Aberto das 08:00 às 20:00</description><Point><coordinates>-8.92956,39.72075</coordinates></Point></Placemark><Placemark><name>Galp - Gasogasgest</name><address>  </address><description>Aberto 24h</description><Point><coordinates>-8.92391,39.74892</coordinates></Point></Placemark><Placemark><name>Galp - Gasogasgest II</name><address>  </address><description>Aberto das 07:00 às 22:00</description><Point><coordinates>-8.91122,39.74782</coordinates></Point></Placemark><Placemark><name>Galp Nazaré</name><address>  </address><description></description><Point><coordinates>-9.05936,39.61505</coordinates></Point></Placemark><Placemark><name>Galp - Grupo Desportivo de Peniche</name><address>  </address><description>Aberto 24h</description><Point><coordinates>-9.37073,39.35857</coordinates></Point></Placemark><Placemark><name>Galp - Luís Pereira, Lda</name><address>  </address><description>Aberto 24h</description><Point><coordinates>-9.31946,39.30258</coordinates></Point></Placemark><Placemark><name>Galp - Atouguia da Baleia</name><address>  </address><description>Aberto das 08:00 às 22:00</description><Point><coordinates>-9.32717,39.34010</coordinates></Point></Placemark><Placemark><name>Galp A.S. Pombal N/S</name><address>  </address><description>Aberto 24h</description><Point><coordinates>-8.60054,40.01407</coordinates></Point></Placemark><Placemark><name>Galp A.S. Pombal S/N</name><address>  </address><description>Aberto 24h</description><Point><coordinates>-8.59929,40.01197</coordinates></Point></Placemark><Placemark><name>Galp - Redinha Sul</name><address>  </address><description>Aberto 24h</description><Point><coordinates>-8.60249,39.99581</coordinates></Point></Placemark><Placemark><name>Galp - Rendinha Norte</name><address>  </address><description>Aberto 24h</description><Point><coordinates>-8.60254,39.99617</coordinates></Point></Placemark><Placemark><name>Galp Pombal - Pinheirinho</name><address>  </address><description>Aberto das 07:00 às 23:00</description><Point><coordinates>-8.68198,39.93695</coordinates></Point></Placemark><Placemark><name>Galp - Meirinhas A</name><address>  </address><description>Aberto 24h</description><Point><coordinates>-8.70921,39.84383</coordinates></Point></Placemark><Placemark><name>Galp - Meirinhas B</name><address>  </address><description>Aberto 24h</description><Point><coordinates>-8.70908,39.84362</coordinates></Point></Placemark><Placemark><name>Galp - Carriço</name><address>  </address><description>Aberto das 07:00 às 23:00</description><Point><coordinates>-8.80177,39.99002</coordinates></Point></Placemark><Placemark><name>Galp Cheganças</name><address>  </address><description></description><Point><coordinates>-8.99179,39.09384</coordinates></Point></Placemark><Placemark><name>Galp - Olhalvo</name><address>  </address><description>Aberto das 07:00 às 24:00</description><Point><coordinates>-9.06741,39.09821</coordinates></Point></Placemark><Placemark><name>Galp - Carregado</name><address>  </address><description>Aberto das 07:00 às 24:00</description><Point><coordinates>-8.97778,39.02283</coordinates></Point></Placemark><Placemark><name>Galp A.S. Alfragide Este</name><address>  </address><description>Aberto 24h</description><Point><coordinates>-9.22361,38.73333</coordinates></Point></Placemark><Placemark><name>Galp - A.S. Brandoa</name><address>R. Professor Ruy Luis Gomes 2650-125 Brandoa</address><description>Aberto 24h</description><Point><coordinates>-9.21162,38.76444</coordinates></Point></Placemark><Placemark><name>Galp Continente Amadora</name><address>  </address><description>Aberto das 06:00 às 23:00</description><Point><coordinates>-9.23460,38.74353</coordinates></Point></Placemark><Placemark><name>Galp - Elias Garcia I</name><address>  </address><description>Aberto 24h</description><Point><coordinates>-9.22934,38.75804</coordinates></Point></Placemark><Placemark><name>Galp Elias Garcia II</name><address>  </address><description>Aberto das 06:00 às 24:00</description><Point><coordinates>-9.22912,38.75786</coordinates></Point></Placemark><Placemark><name>Galp - Graça e Lídia, Lda</name><address>  </address><description>Aberto das 06:00 às 24:00</description><Point><coordinates>-9.23282,38.75669</coordinates></Point></Placemark><Placemark><name>Galp - Est.de Serv. Central, Lda.</name><address>  </address><description>Aberto 24h</description><Point><coordinates>-9.07713,38.97943</coordinates></Point></Placemark><Placemark><name>Galp - António Lança, Lda - Sul</name><address>  </address><description>Aberto das 06:00 às 22:00</description><Point><coordinates>-8.89039,39.05865</coordinates></Point></Placemark><Placemark><name>Galp - António Lança, Lda - Norte</name><address>  </address><description>Aberto das 06:00 às 22:00</description><Point><coordinates>-8.89077,39.05912</coordinates></Point></Placemark><Placemark><name>Galp A.S. Aveiras N/S</name><address>  </address><description>Aberto 24h</description><Point><coordinates>-8.90761,39.12436</coordinates></Point></Placemark><Placemark><name>Galp A.S. Aveiras S/N</name><address>  </address><description>Aberto 24h</description><Point><coordinates>-8.90856,39.12182</coordinates></Point></Placemark><Placemark><name>Galp Vilar - Leal eamp; Leal, Lda</name><address>  </address><description>Aberto das 07:00 às 23:00</description><Point><coordinates>-9.11418,39.18883</coordinates></Point></Placemark><Placemark><name>Galp - A.S. Birre</name><address>  </address><description>Aberto 24h</description><Point><coordinates>-9.44636,38.71097</coordinates></Point></Placemark><Placemark><name>Galp - Adelino Amaro da Costa</name><address>  </address><description>Aberto 24h</description><Point><coordinates>-9.44139,38.71982</coordinates></Point></Placemark><Placemark><name>Galp - Av. Eng. Adelino Amaro da Costa</name><address>Eng Adelino Amaro da Costa  Cascais</address><description>Aberto 24h</description><Point><coordinates>-9.43640,38.71013</coordinates></Point></Placemark><Placemark><name>Galp Carcavelos</name><address>  </address><description>Aberto das 07:00 às 23:00</description><Point><coordinates>-9.34252,38.68239</coordinates></Point></Placemark><Placemark><name>Galp Alcoitão</name><address>  </address><description>Aberto 24h</description><Point><coordinates>-9.38771,38.73541</coordinates></Point></Placemark><Placemark><name>Galp Estoril</name><address>  </address><description>Aberto das 07:00 às 24:00</description><Point><coordinates>-9.39348,38.71129</coordinates></Point></Placemark><Placemark><name>Galp A.S. Abóboda</name><address>  </address><description>Aberto 24h</description><Point><coordinates>-9.33737,38.72258</coordinates></Point></Placemark><Placemark><name>Galp Trajouce</name><address>  </address><description>Aberto 24h</description><Point><coordinates>-9.33896,38.73538</coordinates></Point></Placemark><Placemark><name>Galp - São Domingos de Rana</name><address>  </address><description>Aberto das 06:00 às 24:00</description><Point><coordinates>-9.34072,38.70214</coordinates></Point></Placemark><Placemark><name>Galp Parede - Largo da Igreja</name><address>  </address><description>Aberto das 07:00 às 24:00</description><Point><coordinates>-9.35270,38.68709</coordinates></Point></Placemark><Placemark><name>Galp - Murtal</name><address>  </address><description>Aberto das 08:00 às 21:00</description><Point><coordinates>-9.36064,38.70078</coordinates></Point></Placemark><Placemark><name>Galp - A.S. Aeroporto S/N</name><address>Av. Marechal Craveiro Lopes 1800-000 Lisboa</address><description>Aberto 24h</description><Point><coordinates>-9.12235,38.77948</coordinates></Point></Placemark><Placemark><name>Galp - A.S. Aeroporto N/S</name><address>Av. Marechal Craveiro Lopes 1800-000 Lisboa</address><description>Aberto 24h</description><Point><coordinates>-9.12393,38.77954</coordinates></Point></Placemark><Placemark><name>Galp - Arco do Cego</name><address>  </address><description>Aberto das 07:00 às 24:00</description><Point><coordinates>-9.14281,38.74028</coordinates></Point></Placemark><Placemark><name>Galp - Av. Berlim</name><address>Av. de Berlim 1800-380 Gare do Oriente - Lisboa</address><description>Aberto 24h</description><Point><coordinates>-9.10099,38.76695</coordinates></Point></Placemark><Placemark><name>Galp - A.S. Belém</name><address>  </address><description>Aberto 24h</description><Point><coordinates>-9.20423,38.69491</coordinates></Point></Placemark><Placemark><name>Galp - A.S. Calçada de Carriche L/O</name><address>  </address><description>Aberto 24h</description><Point><coordinates>-9.16751,38.78462</coordinates></Point></Placemark><Placemark><name>Galp - A.S. Duarte Pacheco (Lx/Cascais)</name><address>  </address><description>Aberto 24h</description><Point><coordinates>-9.16791,38.72311</coordinates></Point></Placemark><Placemark><name>Galp - A.S. Telheiras (S/N)</name><address>  </address><description>Aberto 24h</description><Point><coordinates>-9.17118,38.76764</coordinates></Point></Placemark><Placemark><name>Galp - A.S. Ajuda</name><address>  </address><description>Aberto 24h</description><Point><coordinates>-9.20432,38.71054</coordinates></Point></Placemark><Placemark><name>Galp - A.S. Padre Cruz</name><address>  </address><description>Aberto 24h</description><Point><coordinates>-9.16571,38.76548</coordinates></Point></Placemark><Placemark><name>Galp - Olivais</name><address>Av. Cidade de Luanda 4600-275 Olivais</address><description>Aberto 24h</description><Point><coordinates>-9.10880,38.76318</coordinates></Point></Placemark><Placemark><name>Galp - A.S. Lumiar</name><address>  </address><description>Aberto 24h</description><Point><coordinates>-9.15863,38.76424</coordinates></Point></Placemark><Placemark><name>Galp - Av Frei Miguel Contreiras</name><address>Av Frei Miguel Contreiras com Av Roma 1700-000 Lisboa</address><description>Aberto das 07:00 às 24:00</description><Point><coordinates>-9.13964,38.74573</coordinates></Point></Placemark><Placemark><name>Galp - Campo Pequeno</name><address>Avenida António Serpa, 22-28 1050-027 Lisboa</address><description>Aberto 24h</description><Point><coordinates>-9.14800,38.74325</coordinates></Point></Placemark><Placemark><name>Galp Av. Mouzinho de Albuquerque</name><address>Av. Mouzinho de Albuquerque 1170-268 Santa Engrácia</address><description>Aberto 24h</description><Point><coordinates>-9.12169,38.72270</coordinates></Point></Placemark><Placemark><name>Galp - Av. João XXI</name><address>Av. Joao XXI nº 8 A/B 1000-000 Lisboa</address><description>Aberto das 07:00 às 20:00</description><Point><coordinates>-9.13521,38.74240</coordinates></Point></Placemark><Placemark><name>Galp - A.S. Calçada de Carriche O/L</name><address>Calçada de Carriche 1750-540 Lumiar</address><description>Aberto 24h</description><Point><coordinates>-9.16878,38.78495</coordinates></Point></Placemark><Placemark><name>Galp - Estrada da Luz</name><address>Estrada da Luz 1600-000 Lisboa</address><description>Aberto 24h</description><Point><coordinates>-9.17468,38.75381</coordinates></Point></Placemark><Placemark><name>Galp - Estrada dos Arneiros</name><address>Estrada dos Arneiros N40 1500-520 Benfica</address><description>Aberto das 07:00 às 23:00</description><Point><coordinates>-9.19920,38.75553</coordinates></Point></Placemark><Placemark><name>Galp - Av. Índia</name><address>Av. Índia 1400-207 Belém</address><description>Aberto 24h</description><Point><coordinates>-9.21773,38.69380</coordinates></Point></Placemark><Placemark><name>Galp - Garagem S. Miguel</name><address>  </address><description>Aberto das 07:00 às 24:00</description><Point><coordinates>-9.13878,38.75405</coordinates></Point></Placemark><Placemark><name>Galp - Penha de França</name><address>  </address><description></description><Point><coordinates>-9.12799,38.72950</coordinates></Point></Placemark><Placemark><name>Galp - Garagem Ribamar</name><address>  </address><description>Aberto das 07:00 às 21:30</description><Point><coordinates>-9.16528,38.71935</coordinates></Point></Placemark><Placemark><name>Galp - Gago Coutinho</name><address>Av. Alm. Gago Coutinho 1700-031 Lisboa</address><description>Aberto 24h</description><Point><coordinates>-9.13054,38.74911</coordinates></Point></Placemark><Placemark><name>Galp - Loures Este</name><address>EN 250 (Rua da República nº 11) 2670-472 Loures</address><description>Aberto das 06:00 às 21:00</description><Point><coordinates>-9.16355,38.82700</coordinates></Point></Placemark><Placemark><name>Galp - São João da Talha</name><address>Rua Dom Afonso Henriques 2695-691 São João da Talha, Loures</address><description>Aberto das 06:00 às 24:00</description><Point><coordinates>-9.09791,38.82197</coordinates></Point></Placemark><Placemark><name>Galp - São Julião do Tojal</name><address>EN 115-5 2670-830 São Julião do Tojal</address><description>Aberto das 07:00 às 22:00</description><Point><coordinates>-9.11829,38.86081</coordinates></Point></Placemark><Placemark><name>Galp - Sacavém</name><address>Praça da República, N4 2685-105 Sacavém</address><description>Aberto 24h</description><Point><coordinates>-9.10453,38.79580</coordinates></Point></Placemark><Placemark><name>Galp - Sta Iria de Azóia</name><address>Estrada Nacional 10  Santa Iria de Azóia</address><description>Aberto das 06:00 às 24:00</description><Point><coordinates>-9.08371,38.83653</coordinates></Point></Placemark><Placemark><name>Galp Bairro S. Francisco</name><address>Av. Bombeiros Voluntários de Camarate nº 4 2685-534 Camarate</address><description>Aberto 24h</description><Point><coordinates>-9.13766,38.79366</coordinates></Point></Placemark><Placemark><name>Galp Pinheiro de Loures</name><address>  </address><description>Aberto das 06:00 às 22:00</description><Point><coordinates>-9.19079,38.83815</coordinates></Point></Placemark><Placemark><name>Galp - Rua Estado da Índia</name><address>Rua Estado da Índia,  2685-510 Sacavém</address><description>Aberto das 07:00 às 22:00</description><Point><coordinates>-9.11150,38.79005</coordinates></Point></Placemark><Placemark><name>Galp - Loures Oeste</name><address>EN 250 (Rua da República nº 11) 2670-472 Loures</address><description>Aberto 24h</description><Point><coordinates>-9.16260,38.82650</coordinates></Point></Placemark><Placemark><name>Galp - Louricoop Lourinhã</name><address>  </address><description>Aberto 24h</description><Point><coordinates>-9.31480,39.24535</coordinates></Point></Placemark><Placemark><name>Galp - Maria Amélia e Filho, Lda.</name><address>  </address><description>Aberto das 07:00 às 24:00</description><Point><coordinates>-9.41473,38.95852</coordinates></Point></Placemark><Placemark><name>Galp - Automafra</name><address>Av. 25 de Abril, Lote 2-E 2640-456 Mafra</address><description>Aberto 24h</description><Point><coordinates>-9.33033,38.94157</coordinates></Point></Placemark><Placemark><name>Galp - Venda do Pinheiro</name><address>  </address><description>Aberto das 07:00 às 24:00</description><Point><coordinates>-9.23669,38.92766</coordinates></Point></Placemark><Placemark><name>Galp - Coprel Mafra</name><address>Rua Francisco Augusto Leite, 4 2640-410 Mafra</address><description>Aberto das 09:00 às 19:00</description><Point><coordinates>-9.33227,38.95160</coordinates></Point></Placemark><Placemark><name>Galp - Azueira</name><address>  </address><description>Aberto das 07:00 às 22:00</description><Point><coordinates>-9.28837,39.00621</coordinates></Point></Placemark><Placemark><name>Galp - Carrascal</name><address>  </address><description>Aberto das 07:00 às 20:30</description><Point><coordinates>-9.27649,39.00374</coordinates></Point></Placemark><Placemark><name>Galp - Encarnação - Barril</name><address>  </address><description>Aberto das 06:00 às 22:00</description><Point><coordinates>-9.39924,39.04713</coordinates></Point></Placemark><Placemark><name>Galp - Odivelas Parque</name><address>  </address><description>Aberto 24h</description><Point><coordinates>-9.19178,38.78380</coordinates></Point></Placemark><Placemark><name>Galp Ti Saloia I</name><address>Rua Luís de Camões 1675-000 Caneças</address><description>Aberto 24h</description><Point><coordinates>-9.21096,38.81343</coordinates></Point></Placemark><Placemark><name>Galp Odivelas</name><address>Av. D. Dinis  Odivelas</address><description>Aberto das 07:00 às 23:00</description><Point><coordinates>-9.17901,38.78809</coordinates></Point></Placemark><Placemark><name>Galp Ti Saloia II</name><address>Rua Luis de Camões (E.N. 250, km 21,3) 1685-525 Caneças</address><description>Aberto 24h</description><Point><coordinates>-9.21201,38.81330</coordinates></Point></Placemark><Placemark><name>Galp - Paiã</name><address>  </address><description>Aberto das 06:00 às 22:00</description><Point><coordinates>-9.20162,38.77799</coordinates></Point></Placemark><Placemark><name>Galp A.S. Alfragide Oeste</name><address>  </address><description>Aberto 24h</description><Point><coordinates>-9.22421,38.73303</coordinates></Point></Placemark><Placemark><name>Galp - A.S. Queijas</name><address>  </address><description>Aberto 24h</description><Point><coordinates>-9.26363,38.71594</coordinates></Point></Placemark><Placemark><name>Galp - A.S. Oeiras Parque II</name><address>  </address><description>Aberto 24h</description><Point><coordinates>-9.30628,38.70018</coordinates></Point></Placemark><Placemark><name>Galp A.S. Oeiras (Cascais/Lx)</name><address>  </address><description>Aberto 24h</description><Point><coordinates>-9.28641,38.71343</coordinates></Point></Placemark><Placemark><name>Galp A.S. Oeiras (Lx/Cascais)</name><address>  </address><description>Aberto 24h</description><Point><coordinates>-9.28525,38.71508</coordinates></Point></Placemark><Placemark><name>Galp Estádio Nacional II</name><address>  </address><description>Aberto das 06:00 às 24:00</description><Point><coordinates>-9.26186,38.70400</coordinates></Point></Placemark><Placemark><name>Galp Estádio Nacional I</name><address>  </address><description>Aberto 24h</description><Point><coordinates>-9.26049,38.70231</coordinates></Point></Placemark><Placemark><name>Galp Linda-a-Velha (Elefante Azul)</name><address>  </address><description>Aberto 24h</description><Point><coordinates>-9.23933,38.70574</coordinates></Point></Placemark><Placemark><name>Galp Linda-a-Velha</name><address>  </address><description>Aberto 24h</description><Point><coordinates>-9.24023,38.71626</coordinates></Point></Placemark><Placemark><name>Galp Oeiras - Av. Republica</name><address>Av. da República  Oeiras</address><description>Aberto 24h</description><Point><coordinates>-9.32252,38.69440</coordinates></Point></Placemark><Placemark><name>Galp - A.S. Oeiras Parque I</name><address>  </address><description>Aberto 24h</description><Point><coordinates>-9.30460,38.70274</coordinates></Point></Placemark><Placemark><name>Galp - Qta do Paizinho</name><address>Rua Quinta do Paizinho 2790-180 Carnaxide - Oeiras</address><description>Aberto 24h</description><Point><coordinates>-9.21918,38.72176</coordinates></Point></Placemark><Placemark><name>Galp - Linda-a-Velha</name><address>Av. 25 de Abril de 1974 2795-196 Linda-a-Velha</address><description>Aberto das 07:00 às 24:00</description><Point><coordinates>-9.24231,38.71473</coordinates></Point></Placemark><Placemark><name>Galp - A.S. Tapada das Mercês</name><address>  </address><description>Aberto 24h</description><Point><coordinates>-9.32457,38.79848</coordinates></Point></Placemark><Placemark><name>Galp - Mercês</name><address>Av. Capitães de Abril, nº 103 2725-093 Mem Martins - Tapada das Mercês - Algueirão</address><description>Aberto 24h</description><Point><coordinates>-9.33653,38.80249</coordinates></Point></Placemark><Placemark><name>Galp - Erfram, Lda</name><address>  </address><description>Aberto das 07:00 às 23:00</description><Point><coordinates>-9.33232,38.80893</coordinates></Point></Placemark><Placemark><name>Galp Massamá (Soturcol)</name><address>Av. 25 de Abril  Massamá</address><description>Aberto das 07:00 às 23:00</description><Point><coordinates>-9.28889,38.75617</coordinates></Point></Placemark><Placemark><name>Galp Petrosintra</name><address>  </address><description>Aberto das 07:00 às 23:00</description><Point><coordinates>-9.37344,38.84017</coordinates></Point></Placemark><Placemark><name>Galp Bombeiros Colares</name><address>  </address><description>Aberto das 07:00 às 24:00</description><Point><coordinates>-9.44709,38.80065</coordinates></Point></Placemark><Placemark><name>Galp Massamá Norte (Soturcol)</name><address>Av. Salgueiro Maia 2605-216 Massamá</address><description>Aberto 24h</description><Point><coordinates>-9.27913,38.76135</coordinates></Point></Placemark><Placemark><name>Galp A.S. Estr. de Mem Martins</name><address>  </address><description>Aberto das 07:00 às 24:00</description><Point><coordinates>-9.34884,38.78191</coordinates></Point></Placemark><Placemark><name>Galp - Petropóvoa</name><address>  </address><description>Aberto das 07:00 às 21:00</description><Point><coordinates>-9.41773,38.86304</coordinates></Point></Placemark><Placemark><name>Galp - Queluz de Baixo</name><address>R. dos Bombeiros Voluntários 2730-000 Queluz de Baixo</address><description>Aberto 24h</description><Point><coordinates>-9.27493,38.73991</coordinates></Point></Placemark><Placemark><name>Galp - Autódromo Estoril</name><address>  </address><description>Aberto 24h</description><Point><coordinates>-9.38795,38.75659</coordinates></Point></Placemark><Placemark><name>Galp Pêro Pinheiro - Alves Mota</name><address>  </address><description>Aberto das 06:00 às 23:00</description><Point><coordinates>-9.32626,38.85933</coordinates></Point></Placemark><Placemark><name>Galp - Algueirão Mem Martins</name><address>  </address><description>Aberto 24h</description><Point><coordinates>-9.34123,38.78781</coordinates></Point></Placemark><Placemark><name>Galp Algueirão - Petrocodel, Lda</name><address>  </address><description>Aberto 24h</description><Point><coordinates>-9.34589,38.78678</coordinates></Point></Placemark><Placemark><name>Galp Sobral Monte Agraço</name><address>  </address><description>Aberto 24h</description><Point><coordinates>-9.15116,39.01933</coordinates></Point></Placemark><Placemark><name>Galp A.S. Torres Vedras (N/S)</name><address>  </address><description>Aberto 24h</description><Point><coordinates>-9.22650,39.15808</coordinates></Point></Placemark><Placemark><name>Galp A.S. Torres Vedras (S/N)</name><address>  </address><description>Aberto 24h</description><Point><coordinates>-9.22698,39.15635</coordinates></Point></Placemark><Placemark><name>Galp - Arena Shopping Sul</name><address>  </address><description>Aberto 24h</description><Point><coordinates>-9.25570,39.10047</coordinates></Point></Placemark><Placemark><name>Galp Casal do Arrepiado Norte</name><address>  </address><description>Aberto das 07:00 às 23:00</description><Point><coordinates>-9.24430,39.07057</coordinates></Point></Placemark><Placemark><name>Galp Torres Vedras</name><address>Casal do Alconde, Estrada Nacional 9  Torres Vedras</address><description>Aberto 24h</description><Point><coordinates>-9.26687,39.09604</coordinates></Point></Placemark><Placemark><name>Galp - Campelos</name><address>  </address><description></description><Point><coordinates>-9.24410,39.19514</coordinates></Point></Placemark><Placemark><name>Galp - Arena Shopping Norte</name><address>  </address><description>Aberto das 07:00 às 22:00</description><Point><coordinates>-9.25596,39.10063</coordinates></Point></Placemark><Placemark><name>Galp Casal do Arrepiado Sul</name><address>  </address><description>Aberto das 07:00 às 23:00</description><Point><coordinates>-9.24467,39.07035</coordinates></Point></Placemark><Placemark><name>Galp - Palhagueiras</name><address>  </address><description>Aberto das 07:00 às 21:00</description><Point><coordinates>-9.31163,39.13560</coordinates></Point></Placemark><Placemark><name>Galp - A.S. Vila Franca de Xira</name><address>  </address><description>Aberto 24h</description><Point><coordinates>-8.98330,38.96540</coordinates></Point></Placemark><Placemark><name>Galp A.S. Alverca</name><address>Urbanização Vale das Ervas - Alverca  Alverca</address><description>Aberto 24h</description><Point><coordinates>-9.04057,38.88988</coordinates></Point></Placemark><Placemark><name>Galp - Póvoa de Sta Iria</name><address>  </address><description>Aberto 24h</description><Point><coordinates>-9.06739,38.85924</coordinates></Point></Placemark><Placemark><name>Galp Alverca - Chasa</name><address>  </address><description>Aberto das 06:00 às 24:00</description><Point><coordinates>-9.04458,38.89226</coordinates></Point></Placemark><Placemark><name>Galp Alhandra - Abras, Lda</name><address>  </address><description>Aberto das 06:00 às 24:00</description><Point><coordinates>-9.00712,38.93267</coordinates></Point></Placemark><Placemark><name>Galp - Garagem Bela Vista</name><address>EN10 2626-909 Póvoa de Santa Iría</address><description>Aberto 24h</description><Point><coordinates>-9.06373,38.86253</coordinates></Point></Placemark><Placemark><name>Galp Povos (Vila Franca de Xira)</name><address>  </address><description>Aberto 24h</description><Point><coordinates>-8.98305,38.96714</coordinates></Point></Placemark><Placemark><name>Galp Vialonga</name><address>  </address><description>Aberto 24h</description><Point><coordinates>-9.07248,38.87468</coordinates></Point></Placemark><Placemark><name>Galp Arronches</name><address>Largo França Borges 7340-008 Arronches</address><description>Aberto das 07:00 às 21:00</description><Point><coordinates>-7.28367,39.12204</coordinates></Point></Placemark><Placemark><name>Galp Campo Maior</name><address>  </address><description>Aberto das 07:00 às 22:00</description><Point><coordinates>-7.07146,39.01596</coordinates></Point></Placemark><Placemark><name>Galp Castelo de Vide</name><address>EN 246-1 - Sítio da Senhora da Luz 7320-419 Castelo de Vide</address><description>Aberto das 07:00 às 22:00</description><Point><coordinates>-7.47414,39.42266</coordinates></Point></Placemark><Placemark><name>Galp Crato</name><address>R. General Humberto Delgado 7430-162 Crato</address><description>Aberto das 07:00 às 21:00</description><Point><coordinates>-7.64583,39.28877</coordinates></Point></Placemark><Placemark><name>Galp Elvas - Nabeirauto</name><address>  </address><description>Aberto 24h</description><Point><coordinates>-7.17121,38.87737</coordinates></Point></Placemark><Placemark><name>Galp - Gavião</name><address>Rua Dr. Eusébio Leão 6040-130 Gavião</address><description>Aberto das 07:00 às 22:00</description><Point><coordinates>-7.93697,39.46535</coordinates></Point></Placemark><Placemark><name>Galp Nisa - J.P. Caldeira</name><address>Rua da Fábrica - Zona Industrial 6050-343 Nisa</address><description>Aberto das 07:00 às 23:30</description><Point><coordinates>-7.64409,39.51074</coordinates></Point></Placemark><Placemark><name>Galp - Ponte de Sor</name><address>  </address><description>Aberto 24h</description><Point><coordinates>-8.01099,39.25896</coordinates></Point></Placemark><Placemark><name>Galp Ponte de Sor</name><address>  </address><description>Aberto 24h</description><Point><coordinates>-8.01213,39.26441</coordinates></Point></Placemark><Placemark><name>Galp - Portalegre Sul</name><address>  </address><description>Aberto 24h</description><Point><coordinates>-7.43131,39.27861</coordinates></Point></Placemark><Placemark><name>Galp - Lubripor</name><address>  </address><description>Aberto das 06:00 às 24:00</description><Point><coordinates>-7.43253,39.29573</coordinates></Point></Placemark><Placemark><name>Galp Sousel</name><address>Av. Nova, 13 7470-254 Sousel</address><description>Aberto das 07:00 às 21:00</description><Point><coordinates>-7.67459,38.95206</coordinates></Point></Placemark><Placemark><name>Galp - Rampa Alta</name><address>Lugar da Rampa Alta 4600-275 Rampa Alta, Amarante</address><description>Aberto das 06:00 às 24:00</description><Point><coordinates>-8.08283,41.27981</coordinates></Point></Placemark><Placemark><name>Galp - Pinheiro Manso</name><address>EN 15, Km 57,3 4600-612 Freixo de Baixo</address><description>Aberto das 06:00 às 24:00</description><Point><coordinates>-8.10262,41.29160</coordinates></Point></Placemark><Placemark><name>Galp Cachada</name><address>EN 15, Km 50 - Cachada 4615-178 Figueiró</address><description>Aberto das 06:00 às 23:00</description><Point><coordinates>-8.15986,41.31369</coordinates></Point></Placemark><Placemark><name>Galp - Vila Meã</name><address>Rua 5 de Outubro - Ataíde 4605-378 Vila Meã</address><description>Aberto das 07:00 às 22:00</description><Point><coordinates>-8.18481,41.24424</coordinates></Point></Placemark><Placemark><name>Galp - Alto da Lixa</name><address>  </address><description>Aberto das 06:00 às 23:00</description><Point><coordinates>-8.14631,41.31465</coordinates></Point></Placemark><Placemark><name>Galp Baião</name><address>  </address><description></description><Point><coordinates>-8.03447,41.16243</coordinates></Point></Placemark><Placemark><name>Galp - Felgueiras</name><address>  </address><description>Aberto das 00:00 às 22:00</description><Point><coordinates>-8.20222,41.36228</coordinates></Point></Placemark><Placemark><name>Galp Lixa</name><address>Av. da República 4615-676 Lixa</address><description>Aberto das 07:00 às 23:00</description><Point><coordinates>-8.15101,41.33092</coordinates></Point></Placemark><Placemark><name>Galp Felgueiras - Margaride</name><address>Av. Agostinho Ribeiro - Margaride 4610-102 Felgueiras</address><description>Aberto das 07:00 às 23:30</description><Point><coordinates>-8.20126,41.36678</coordinates></Point></Placemark><Placemark><name>Galp A.S. Gondomar</name><address>Av. General Humberto Delgado nº 61-69 4435-605 Gondomar</address><description>Aberto 24h</description><Point><coordinates>-8.53162,41.14706</coordinates></Point></Placemark><Placemark><name>Galp A.S. Rio Tinto</name><address>Rua Pedro Álvares Cabral 4435-000 Rio Tinto</address><description>Aberto 24h</description><Point><coordinates>-8.55463,41.17345</coordinates></Point></Placemark><Placemark><name>Galp - Areosa</name><address>EN 105 (R. D. Afonso Henriques) Km 1,8 - Areosa 4435-003 Rio Tinto</address><description>Aberto das 07:00 às 24:00</description><Point><coordinates>-8.57625,41.19626</coordinates></Point></Placemark><Placemark><name>Galp - Modelo St. Rita</name><address>Rua das Macieiras, 330 4445-502 Rio Tinto</address><description>Aberto das 08:00 às 20:00</description><Point><coordinates>-8.54537,41.20189</coordinates></Point></Placemark><Placemark><name>Galp - Av. da Carvalha</name><address>  </address><description>Aberto 24h</description><Point><coordinates>-8.53858,41.16354</coordinates></Point></Placemark><Placemark><name>Galp Valbom</name><address>Avenida Escritor Costa Barreto (N 108)  Valbom</address><description>Aberto das 06:00 às 24:00</description><Point><coordinates>-8.56666,41.12790</coordinates></Point></Placemark><Placemark><name>Galp Atães</name><address>EN 108 (Av. Clube dos Caçadores, 5875) Km 6,2 - Atães 4420-088 Atães</address><description>Aberto das 06:00 às 22:00</description><Point><coordinates>-8.53273,41.10812</coordinates></Point></Placemark><Placemark><name>Galp Melres N/S</name><address>EN 108 (Av.José Joaquim Ferreira, 5272) Km 24,4  4515-462 Melres</address><description>Aberto 24h</description><Point><coordinates>-8.39904,41.05926</coordinates></Point></Placemark><Placemark><name>Galp Melres S/N</name><address>EN 108 (Av.José Joaquim Ferreira) Km 25,1 4515-462 Melres</address><description>Aberto das 06:00 às 23:00</description><Point><coordinates>-8.39873,41.05919</coordinates></Point></Placemark><Placemark><name>Galp - Costilha</name><address>  </address><description>Aberto das 06:00 às 01:00</description><Point><coordinates>-8.29082,41.26665</coordinates></Point></Placemark><Placemark><name>Galp A.S. Águas Santas N/S</name><address>A4 Km 9,8 4429-000 Águas Santas</address><description>Aberto 24h</description><Point><coordinates>-8.56796,41.20071</coordinates></Point></Placemark><Placemark><name>Galp A.S. Águas Santas S/N</name><address>A4 Km 9,8 4479-000 Águas Santas</address><description>Aberto 24h</description><Point><coordinates>-8.56709,41.20009</coordinates></Point></Placemark><Placemark><name>Galp - Petrocastelo</name><address>Estrada Nacional 14  Castelo da Maia</address><description>Aberto das 06:00 às 24:00</description><Point><coordinates>-8.61603,41.25968</coordinates></Point></Placemark><Placemark><name>Galp - Guardeiras</name><address>  </address><description>Aberto das 08:00 às 22:00</description><Point><coordinates>-8.65448,41.25494</coordinates></Point></Placemark><Placemark><name>Galp - Águas Santas</name><address>EN 105 (Av. D. Afonso Henriques, 3965) Km 3,95 4425-057 Águas Santas</address><description>Aberto das 07:00 às 24:00</description><Point><coordinates>-8.56430,41.21267</coordinates></Point></Placemark><Placemark><name>Galp Maia - R. de Monforte S/N</name><address>EN 105 - Rua de Monforte - Travagem 4425-346 Folgosa</address><description>Aberto das 06:00 às 01:00</description><Point><coordinates>-8.54797,41.23279</coordinates></Point></Placemark><Placemark><name>Galp Maia - R. de Monforte N/S</name><address>EN 105 - Rua de Monforte - Travagem 4425-346 Folgosa</address><description>Aberto das 07:00 às 24:00</description><Point><coordinates>-8.54788,41.23308</coordinates></Point></Placemark><Placemark><name>Galp - Maia Jardim</name><address>Rua Agostinho da Silva Rocha 4475-451 Nogueira - Maia</address><description>Aberto 24h</description><Point><coordinates>-8.59750,41.23583</coordinates></Point></Placemark><Placemark><name>Galp - Alpendurada</name><address>  </address><description></description><Point><coordinates>-8.25231,41.08515</coordinates></Point></Placemark><Placemark><name>Galp - Marco de Canaveses</name><address>Av. Dr. Francisco Sá Carneiro, 651 (EN 210, Km 61,2) 4630-205 Marco de Canaveses</address><description>Aberto das 06:00 às 24:00</description><Point><coordinates>-8.15247,41.18162</coordinates></Point></Placemark><Placemark><name>Galp - Leça da Palmeira</name><address>R. Belchior Robles 4450-626 Leça da Palmeira</address><description>Aberto 24h</description><Point><coordinates>-8.69910,41.20119</coordinates></Point></Placemark><Placemark><name>Galp - Caolinos</name><address>Est. Ext. da Circunvalação 4460-280 Senhora da Hora</address><description>Aberto 24h</description><Point><coordinates>-8.64016,41.18372</coordinates></Point></Placemark><Placemark><name>Galp Parque Real</name><address>Estr. Ext. da Circunvalação, Km 15,1 4450-097 Matosinhos</address><description>Aberto 24h</description><Point><coordinates>-8.67835,41.17186</coordinates></Point></Placemark><Placemark><name>Galp - Circunvalação (Senhora da Hora)</name><address>Est. Ext. da Circunvalação, 12040 4460-282 Senhora da Hora</address><description>Aberto das 07:00 às 23:00</description><Point><coordinates>-8.64770,41.18226</coordinates></Point></Placemark><Placemark><name>Galp - Via Rápida S/N</name><address>  </address><description>Aberto 24h</description><Point><coordinates>-8.66192,41.18352</coordinates></Point></Placemark><Placemark><name>Galp - Matosinhos Sul</name><address>Rua Brito Capelo, 951 4450-077 Matosinhos</address><description>Aberto das 07:00 às 24:00</description><Point><coordinates>-8.68943,41.17934</coordinates></Point></Placemark><Placemark><name>Galp - Via Rápida N/S</name><address>  </address><description>Aberto 24h</description><Point><coordinates>-8.66371,41.18424</coordinates></Point></Placemark><Placemark><name>Galp - Norte Shopping</name><address>Loteamento Quinta das Sedas Lt.7 4460-000 Senhora da Hora</address><description>Aberto das 08:00 às 01:00</description><Point><coordinates>-8.65408,41.17957</coordinates></Point></Placemark><Placemark><name>Galp - Custóias Sul</name><address>  </address><description>Aberto 24h</description><Point><coordinates>-8.64038,41.20454</coordinates></Point></Placemark><Placemark><name>Galp - Custóias Norte</name><address>  </address><description>Aberto 24h</description><Point><coordinates>-8.63931,41.20555</coordinates></Point></Placemark><Placemark><name>Galp - Padrão da Legua</name><address>Rua Nova do Seixo, 1184 - Seixo 4465-706 Senhora da Hora</address><description>Aberto das 07:00 às 24:00</description><Point><coordinates>-8.63266,41.18994</coordinates></Point></Placemark><Placemark><name>Galp - Angeiras</name><address>  </address><description>Aberto das 07:00 às 21:30</description><Point><coordinates>-8.72690,41.26519</coordinates></Point></Placemark><Placemark><name>Galp Perafita II (Sentido-Leça da Palmeira/Aeroporto)</name><address>Estrada Nacional 107, Junto ao nó da A28/IC1  Perafita</address><description></description><Point><coordinates>-8.68741,41.22039</coordinates></Point></Placemark><Placemark><name>Galp Perafita I (Sentido-Aeroporto/Leça da Palmeira)</name><address>Estrada Nacional 107, Junto ao nó da A28/IC1  Perafita</address><description>Aberto 24h</description><Point><coordinates>-8.68776,41.22049</coordinates></Point></Placemark><Placemark><name>Galp - Leça da Palmeira</name><address>  </address><description>Aberto das 07:00 às 24:00</description><Point><coordinates>-8.69699,41.19307</coordinates></Point></Placemark><Placemark><name>Galp - Carvalhosa</name><address>Rua Nossa Sra do Rosário, 197 4590-055 Carvalhosa</address><description></description><Point><coordinates>-8.37856,41.29179</coordinates></Point></Placemark><Placemark><name>Galp - Ferrara Plaza Paços de Ferreira</name><address>Centro Comercial Ferrara Plaza 4590-060 Paços de Ferreira</address><description>Aberto 24h</description><Point><coordinates>-8.36109,41.28540</coordinates></Point></Placemark><Placemark><name>Galp - Castelões de Cepeda</name><address>  </address><description>Aberto 24h</description><Point><coordinates>-8.33737,41.20572</coordinates></Point></Placemark><Placemark><name>Galp - Baltar</name><address>  </address><description></description><Point><coordinates>-8.37909,41.18818</coordinates></Point></Placemark><Placemark><name>Galp - Rebordosa</name><address>  </address><description></description><Point><coordinates>-8.41862,41.21197</coordinates></Point></Placemark><Placemark><name>Galp - Cristelo</name><address>Rua Casimiro Neto da Silva, 416 4580-191 Cristelo</address><description>Aberto das 07:30 às 22:00</description><Point><coordinates>-8.36164,41.23523</coordinates></Point></Placemark><Placemark><name>Galp A.S. Penafiel</name><address>N15 (Rua Tenente Valadim) Km 29,6 4450-000 Penafiel</address><description>Aberto 24h</description><Point><coordinates>-8.29784,41.19332</coordinates></Point></Placemark><Placemark><name>Galp - Entre-os-Rios</name><address>EN 108 (Rua Principal) Km 38,150 4575-218 Entre-os-Rios</address><description>Aberto das 06:30 às 22:00</description><Point><coordinates>-8.29188,41.08679</coordinates></Point></Placemark><Placemark><name>Galp A.S. Boavista</name><address>Av. da Boavista, 4663-4685 - Foz - Nevogilde 4110-141 Porto</address><description>Aberto 24h</description><Point><coordinates>-8.67835,41.16593</coordinates></Point></Placemark><Placemark><name>Galp - Freixo</name><address>Estr. Ext. Circunvalação, 80-130 - Freixo - Campanhã 4300-010 Porto</address><description>Aberto 24h</description><Point><coordinates>-8.57820,41.14572</coordinates></Point></Placemark><Placemark><name>Galp - Estádio do Dragão</name><address>Av. Fernão de Magalhães, 1854/74 - Antas - Campanhã 4350-158 Porto</address><description>Aberto das 07:00 às 24:00</description><Point><coordinates>-8.58870,41.16498</coordinates></Point></Placemark><Placemark><name>Galp - Fernão Magalhães (Antas)</name><address>Av. Fernão de Magalhães, 2322 - Antas - Campanhã 4350-160 Porto</address><description>Aberto das 05:00 às 01:00</description><Point><coordinates>-8.58683,41.16928</coordinates></Point></Placemark><Placemark><name>Galp Fernão Magalhães (Areosa) S/N</name><address>Av. Fernão de Magalhães, 3352 - Areosa - Paranhos 4350-163 Porto</address><description>Aberto das 07:00 às 24:00</description><Point><coordinates>-8.58244,41.17828</coordinates></Point></Placemark><Placemark><name>Galp Univ. Católica</name><address>Rua Diogo Botelho, 2049 - Foz - Foz do Douro 4150-268 Porto</address><description>Aberto 24h</description><Point><coordinates>-8.67069,41.15317</coordinates></Point></Placemark><Placemark><name>Galp - Constituição</name><address>R. da Constituição, 2312 - Carvalhido - Cedofeita 4250-164 Porto</address><description>Aberto das 07:00 às 24:00</description><Point><coordinates>-8.62554,41.16464</coordinates></Point></Placemark><Placemark><name>Galp Circunvalação (Amial)</name><address>Estr. Int. da circunvalação, 8775 - Amial - Paranhos 4250-147 Porto</address><description>Aberto das 07:00 às 24:00</description><Point><coordinates>-8.61227,41.18331</coordinates></Point></Placemark><Placemark><name>Galp - Francos</name><address>Av. AEP (Associação Empresarial de Portugal) - Francos - Ramalde 4100-151 Porto</address><description>Aberto 24h</description><Point><coordinates>-8.63986,41.16459</coordinates></Point></Placemark><Placemark><name>Galp Fernão Magalhães (Areosa) N/S</name><address>Av. Fernão de Magalhães, 3363 - Areosa - Paranhos 4350-175 Porto</address><description>Aberto das 06:00 às 23:00</description><Point><coordinates>-8.58282,41.17849</coordinates></Point></Placemark><Placemark><name>Galp - Fernão Magalhães (Montebelo)</name><address>Av. Fernão Magalhães, 390 - Campo 24 Agosto - Bonfim 4300-189 Porto</address><description>Aberto das 07:00 às 23:00</description><Point><coordinates>-8.59620,41.15331</coordinates></Point></Placemark><Placemark><name>Galp - Silo-Auto</name><address>Rua Guedes de Azevedo, 148 - Trindade - Santo Ildefonso 4000-271 Porto</address><description>Aberto das 07:00 às 20:30</description><Point><coordinates>-8.60673,41.15246</coordinates></Point></Placemark><Placemark><name>Galp A.S. Póvoa de Varzim</name><address>Av. do Mar 4490-406 Póvoa de Varzim</address><description>Aberto 24h</description><Point><coordinates>-8.76365,41.38901</coordinates></Point></Placemark><Placemark><name>Galp Estela S/N</name><address>Rua da Estela, 1022 4570-209 Estela</address><description>Aberto das 07:00 às 23:00</description><Point><coordinates>-8.75360,41.44603</coordinates></Point></Placemark><Placemark><name>Galp Estela N/S</name><address>EN 13 Km 33,8 4570-209 Estela</address><description>Aberto das 06:00 às 23:00</description><Point><coordinates>-8.75389,41.44601</coordinates></Point></Placemark><Placemark><name>Galp - Auto Reparadora do Picoto</name><address>  </address><description>Aberto das 07:00 às 24:00</description><Point><coordinates>-8.47866,41.33743</coordinates></Point></Placemark><Placemark><name>Galp -Santo Tirso</name><address>Rua das Rãs  Santo Tirso</address><description>Aberto das 06:00 às 23:00</description><Point><coordinates>-8.47833,41.33270</coordinates></Point></Placemark><Placemark><name>Galp - Poldrães</name><address>Avenida de Poldrães 4795-006 Vila das Aves</address><description>Aberto das 07:00 às 23:00</description><Point><coordinates>-8.39815,41.36293</coordinates></Point></Placemark><Placemark><name>Galp - Agrela</name><address>Rua 25 de Abril  Agrela</address><description>Aberto das 07:00 às 22:00</description><Point><coordinates>-8.48552,41.25937</coordinates></Point></Placemark><Placemark><name>Galp - Areias</name><address>  </address><description>Aberto das 07:00 às 24:00</description><Point><coordinates>-8.48278,41.36750</coordinates></Point></Placemark><Placemark><name>Galp A.S. Trofa N/S</name><address>  </address><description>Aberto 24h</description><Point><coordinates>-8.56406,41.26465</coordinates></Point></Placemark><Placemark><name>Galp A.S. Trofa S/N</name><address>  </address><description>Aberto 24h</description><Point><coordinates>-8.56367,41.26265</coordinates></Point></Placemark><Placemark><name>Galp - Trofa</name><address>  </address><description>Aberto das 06:00 às 23:00</description><Point><coordinates>-8.55691,41.34316</coordinates></Point></Placemark><Placemark><name>Galp - S. Romão do Coronado</name><address>EN 318 (Rua do Horizonte) Km 13 4745-524 S. Romão do Coronado</address><description>Aberto das 05:00 às 01:00</description><Point><coordinates>-8.55966,41.28078</coordinates></Point></Placemark><Placemark><name>Galp - São Martinho de Bougado</name><address>  </address><description>Aberto das 07:00 às 22:00</description><Point><coordinates>-8.53302,41.33728</coordinates></Point></Placemark><Placemark><name>Galp - Campo / Valongo</name><address>N15 Km 10,2 (Rua Central do Campo) 4440-000 Campo</address><description>Aberto das 07:00 às 24:00</description><Point><coordinates>-8.47359,41.18287</coordinates></Point></Placemark><Placemark><name>Galp - Alto de Valongo</name><address>Av. das Descobertas nº 34 4440-575 Valongo</address><description>Aberto 24h</description><Point><coordinates>-8.51702,41.19447</coordinates></Point></Placemark><Placemark><name>Galp - Alfena</name><address>  </address><description>Aberto 24h</description><Point><coordinates>-8.53304,41.23779</coordinates></Point></Placemark><Placemark><name>Galp - Rua do Conde Ferreira</name><address>  </address><description>Aberto das 07:00 às 23:00</description><Point><coordinates>-8.50018,41.18910</coordinates></Point></Placemark><Placemark><name>Galp - Continente Valongo</name><address>Av. do Conhecimento nº 75 c/ R. Julião Sarmento nº 285 4440-837 Valongo</address><description>Aberto 24h</description><Point><coordinates>-8.48887,41.19784</coordinates></Point></Placemark><Placemark><name>Galp - Auto Rep Moura</name><address>Via do Vale  Valongo</address><description>Aberto das 07:00 às 23:00</description><Point><coordinates>-8.50425,41.19227</coordinates></Point></Placemark><Placemark><name>Galp A.S. Vila do Conde S/N</name><address>A28 4480-871 Labruge</address><description>Aberto 24h</description><Point><coordinates>-8.70267,41.28848</coordinates></Point></Placemark><Placemark><name>Galp A.S. Vila do Conde N/S</name><address>A28 4480-871 Labruge</address><description>Aberto 24h</description><Point><coordinates>-8.70499,41.28922</coordinates></Point></Placemark><Placemark><name>Galp - Zona Industrial Varziela</name><address>  </address><description>Aberto das 07:00 às 22:00</description><Point><coordinates>-8.71284,41.32036</coordinates></Point></Placemark><Placemark><name>Galp - Vila do Conde</name><address>  </address><description>Aberto 24h</description><Point><coordinates>-8.74483,41.36009</coordinates></Point></Placemark><Placemark><name>Galp - Guilhabreu</name><address>  </address><description></description><Point><coordinates>-8.65524,41.29269</coordinates></Point></Placemark><Placemark><name>Galp Mindelo</name><address>EN 13 - Km 17,4 4485-473 Mindelo</address><description>Aberto das 07:00 às 23:00</description><Point><coordinates>-8.70801,41.31322</coordinates></Point></Placemark><Placemark><name>Galp Vila do Conde (Alto da Pega)</name><address>Rua Alto da Pêga 4480-911 Vila do Conde</address><description>Aberto 24h</description><Point><coordinates>-8.74679,41.36322</coordinates></Point></Placemark><Placemark><name>Galp - Labruge</name><address>  </address><description>Aberto das 07:00 às 21:00</description><Point><coordinates>-8.71717,41.27839</coordinates></Point></Placemark><Placemark><name>Galp Feiteira (N/S)</name><address>EN 1 (Av. Dr. Moreira de Sousa) Km 292,4 - Feiteira 4415-386 Grijó</address><description>Aberto 24h</description><Point><coordinates>-8.56366,41.04333</coordinates></Point></Placemark><Placemark><name>Galp Feiteira (S/N)</name><address>EN 1 (Av. Dr. Moreira de Sousa) Km 292,4 - Feiteira 4415-382 Grijó</address><description>Aberto das 07:00 às 24:00</description><Point><coordinates>-8.56333,41.04344</coordinates></Point></Placemark><Placemark><name>Galp Afurada - Torres e Vaz, Lda</name><address>Av. dos Escultores nº 199 4404-504 São Pedro da Afurada - Vila Nova de Gaia</address><description>Aberto 24h</description><Point><coordinates>-8.64249,41.13763</coordinates></Point></Placemark>